[{"id":61675193,"lat":37.7721282,"lng":-122.4227728,"name":"Martuni's","amenity":"bar","type":"venue","outdoorSeating":false,"cuisine":null,"website":null,"address":"4 Valencia Street"},{"id":61676294,"lat":37.7696815,"lng":-122.4487116,"name":"The Green Heron","amenity":"bar","type":"venue","outdoorSeating":false,"cuisine":null,"website":null,"address":"1601 Haight Street"},{"id":61690921,"lat":37.7969638,"lng":-122.4056426,"name":"Comstock Saloon","amenity":"bar","type":"venue","outdoorSeating":false,"cuisine":null,"website":null,"address":"155 Columbus Avenue"},{"id":286132370,"lat":37.7995505,"lng":-122.4370481,"name":"Mel's Drive-in","amenity":"restaurant","type":"venue","outdoorSeating":false,"cuisine":"diner","website":"https://melsdrive-in.com/restaurant/mels-lombard-street/","address":null},{"id":293573361,"lat":37.7923271,"lng":-122.4346848,"name":"Blue Bottle","amenity":"cafe","type":"venue","outdoorSeating":false,"cuisine":null,"website":null,"address":null},{"id":302448629,"lat":37.7680917,"lng":-122.4245857,"name":"Mezze and Mooore","amenity":"restaurant","type":"venue","outdoorSeating":false,"cuisine":"lebanese","website":"https://www.mezzeandmooore.com/","address":"198 Guerrero Street"},{"id":317081652,"lat":37.7854639,"lng":-122.4071525,"name":"John's Grill Live Jazz","amenity":"restaurant","type":"venue","outdoorSeating":true,"cuisine":"steak;seafood","website":"https://www.johnsgrill.com/","address":"63 Ellis Street"},{"id":317081666,"lat":37.7862572,"lng":-122.4086732,"name":"John Foley's Dueling Piano Bar","amenity":"bar","type":"venue","outdoorSeating":false,"cuisine":null,"website":null,"address":null},{"id":317124793,"lat":37.7814263,"lng":-122.387807,"name":"Frankie’s Java House","amenity":"restaurant","type":"venue","outdoorSeating":true,"cuisine":null,"website":null,"address":null},{"id":317124805,"lat":37.7817082,"lng":-122.3942534,"name":"Caffe Centro","amenity":"restaurant","type":"venue","outdoorSeating":false,"cuisine":null,"website":null,"address":null},{"id":317124812,"lat":37.7795947,"lng":-122.3951729,"name":"Brickhouse Cafe and Bar","amenity":"cafe","type":"venue","outdoorSeating":true,"cuisine":null,"website":null,"address":null},{"id":319020714,"lat":37.7664478,"lng":-122.4222039,"name":"Little Star Pizza","amenity":"restaurant","type":"venue","outdoorSeating":false,"cuisine":"pizza","website":"http://www.littlestarpizza.com","address":"400 Valencia Street"},{"id":331389010,"lat":37.7986732,"lng":-122.4072962,"name":"Caffe Trieste","amenity":"cafe","type":"venue","outdoorSeating":false,"cuisine":"coffee_shop","website":"https://caffetrieste.com/","address":"601 Vallejo Street"},{"id":331389382,"lat":37.7995427,"lng":-122.4072822,"name":"Dupont Thai","amenity":"restaurant","type":"venue","outdoorSeating":false,"cuisine":"thai","website":null,"address":"1398 Grant Avenue"},{"id":331665706,"lat":37.7998993,"lng":-122.4070903,"name":"Bocce Cafe","amenity":"restaurant","type":"venue","outdoorSeating":false,"cuisine":"italian","website":null,"address":"478 Green Street"},{"id":331665816,"lat":37.7998833,"lng":-122.4069896,"name":"Maykadeh Persian Restaurant","amenity":"restaurant","type":"venue","outdoorSeating":false,"cuisine":"persian","website":null,"address":"470 Green Street"},{"id":331666407,"lat":37.7977838,"lng":-122.4052952,"name":"Tommaso's Ristorante Italiano","amenity":"restaurant","type":"venue","outdoorSeating":false,"cuisine":"italian","website":"https://www.tommasos.com/","address":"1042 Kearny Street"},{"id":332730973,"lat":37.786217,"lng":-122.453191,"name":"Starbucks","amenity":"cafe","type":"venue","outdoorSeating":false,"cuisine":"coffee_shop","website":"https://www.starbucks.com/store-locator/store/9025/laurel-village-3595-california-st-san-francisco-ca-941181707-us","address":"3595 California Street"},{"id":332730993,"lat":37.7866119,"lng":-122.4504574,"name":"Peet's Coffee","amenity":"cafe","type":"venue","outdoorSeating":false,"cuisine":"coffee_shop","website":null,"address":"3419 California Street"},{"id":332787283,"lat":37.7881122,"lng":-122.4467909,"name":"Osteria Cucina Toscana","amenity":"restaurant","type":"venue","outdoorSeating":false,"cuisine":"italian","website":null,"address":null},{"id":332787308,"lat":37.7870938,"lng":-122.4563869,"name":"Picnix Bistro","amenity":"cafe","type":"venue","outdoorSeating":false,"cuisine":null,"website":null,"address":"3872 Sacramento Street"},{"id":334976777,"lat":37.7996767,"lng":-122.4086205,"name":"Caffé Sport","amenity":"restaurant","type":"venue","outdoorSeating":false,"cuisine":"italian","website":null,"address":"574 Green Street"},{"id":335444374,"lat":37.7908279,"lng":-122.4025161,"name":"Peet's Coffee","amenity":"cafe","type":"venue","outdoorSeating":false,"cuisine":"coffee_shop","website":null,"address":"155 Montgomery Street"},{"id":351963628,"lat":37.7866169,"lng":-122.414982,"name":"Angel Cafe & Deli","amenity":"cafe","type":"venue","outdoorSeating":true,"cuisine":null,"website":null,"address":"700 Geary Street"},{"id":359102192,"lat":37.7995051,"lng":-122.400617,"name":"Grumpy's Restaurant Pub","amenity":"restaurant","type":"venue","outdoorSeating":false,"cuisine":null,"website":null,"address":"125 Vallejo Street"},{"id":360450263,"lat":37.7511207,"lng":-122.4383271,"name":"Philz Coffee","amenity":"cafe","type":"venue","outdoorSeating":false,"cuisine":"coffee_shop","website":null,"address":"4298 24th Street"},{"id":360451646,"lat":37.7511229,"lng":-122.4382091,"name":"Firefly","amenity":"restaurant","type":"venue","outdoorSeating":false,"cuisine":"regional","website":null,"address":"4288 24th Street"},{"id":360463558,"lat":37.7484974,"lng":-122.429217,"name":"Noe Cafe","amenity":"cafe","type":"venue","outdoorSeating":true,"cuisine":"coffee_shop;beer","website":"https://noecafe.com/","address":"1299 Sanchez Street"},{"id":360463846,"lat":37.7485992,"lng":-122.4269982,"name":"Chloe's Cafe","amenity":"cafe","type":"venue","outdoorSeating":false,"cuisine":null,"website":null,"address":"1399 Church Street"},{"id":360464146,"lat":37.7490403,"lng":-122.4270583,"name":"Bernal Heights Pizzeria","amenity":"restaurant","type":"venue","outdoorSeating":false,"cuisine":"pizza","website":"https://www.bernalheightspizzeria.com/","address":"1361 Church Street"},{"id":360464463,"lat":37.7492082,"lng":-122.4270599,"name":"Lovejoy's Tea Room","amenity":"cafe","type":"venue","outdoorSeating":true,"cuisine":"tea","website":null,"address":"1351 Church Street"},{"id":366696563,"lat":37.7994783,"lng":-122.4084162,"name":"Belle Cora","amenity":"restaurant","type":"venue","outdoorSeating":false,"cuisine":null,"website":"https://thebellecora.com/","address":"565 Green Street"},{"id":366699257,"lat":37.7991508,"lng":-122.408776,"name":"Barbara Pinseria & Cocktail Bar","amenity":"restaurant","type":"venue","outdoorSeating":false,"cuisine":"italian;pizza;pinsa","website":"https://www.sfbarbara.com/","address":"431 Columbus Avenue"},{"id":366700371,"lat":37.7991949,"lng":-122.409102,"name":"Cavalli Cafe","amenity":"cafe","type":"venue","outdoorSeating":false,"cuisine":"coffee_shop","website":null,"address":"1441 Stockton Street"},{"id":366701342,"lat":37.800326,"lng":-122.409326,"name":"Original Joe's","amenity":"restaurant","type":"venue","outdoorSeating":true,"cuisine":"italian;burger;pasta;steak","website":"https://originaljoes.com/","address":"601 Union Street"},{"id":366703620,"lat":37.8014859,"lng":-122.4095533,"name":"Mama's on Washington Square","amenity":"restaurant","type":"venue","outdoorSeating":false,"cuisine":null,"website":null,"address":"1701 Stockton Street"},{"id":370194862,"lat":37.7790091,"lng":-122.4109149,"name":"Teo Restaurant & Bar","amenity":"restaurant","type":"venue","outdoorSeating":false,"cuisine":"chinese","website":null,"address":"1111 Mission Street"},{"id":370198231,"lat":37.7818767,"lng":-122.410081,"name":"Tú Lan","amenity":"restaurant","type":"venue","outdoorSeating":false,"cuisine":"vietnamese","website":null,"address":"8 6th Street"},{"id":371002140,"lat":37.8005954,"lng":-122.4090839,"name":"Acquolina","amenity":"restaurant","type":"venue","outdoorSeating":true,"cuisine":null,"website":"https://www.facebook.com/Acquolina-446017905573613/","address":"1600 Stockton Street"},{"id":371002317,"lat":37.8005275,"lng":-122.4074703,"name":"North Beach Pizza","amenity":"restaurant","type":"venue","outdoorSeating":false,"cuisine":null,"website":"https://www.northbeachpizza.com/","address":"1462 Grant Avenue"},{"id":371011277,"lat":37.7948285,"lng":-122.4061227,"name":"Empress of China","amenity":"restaurant","type":"venue","outdoorSeating":false,"cuisine":"chinese","website":null,"address":"838 Grant Avenue"},{"id":371250373,"lat":37.801363,"lng":-122.4119257,"name":"Sushi on North Beach - Katsu","amenity":"restaurant","type":"venue","outdoorSeating":false,"cuisine":"japanese","website":null,"address":"745 Columbus Avenue"},{"id":371250730,"lat":37.7999591,"lng":-122.4100117,"name":"Il Pollaio","amenity":"restaurant","type":"venue","outdoorSeating":false,"cuisine":"chicken","website":"https://www.ilpollaiosf.com","address":"555 Columbus Avenue"},{"id":371250864,"lat":37.8052102,"lng":-122.4103219,"name":"Freddie's Sandwiches","amenity":"restaurant","type":"venue","outdoorSeating":false,"cuisine":"sandwich","website":"http://orderfreddiessandwiches.com","address":"300 Francisco Street"},{"id":371251141,"lat":37.8019801,"lng":-122.4129815,"name":"La Trappe","amenity":"restaurant","type":"venue","outdoorSeating":false,"cuisine":"belgian","website":"https://www.latrappecafe.com/","address":"800 Greenwich Street"},{"id":371251268,"lat":37.798189,"lng":-122.4029307,"name":"Coi","amenity":"restaurant","type":"venue","outdoorSeating":false,"cuisine":"new_american","website":null,"address":"373 Broadway"},{"id":371251496,"lat":37.7991995,"lng":-122.407215,"name":"Mo's Grill","amenity":"restaurant","type":"venue","outdoorSeating":false,"cuisine":"burger","website":null,"address":"1322 Grant Avenue"},{"id":371251641,"lat":37.8004678,"lng":-122.4110417,"name":"Washington Square Bar & Grill","amenity":"restaurant","type":"venue","outdoorSeating":false,"cuisine":null,"website":null,"address":"1707 Powell Street"},{"id":371252330,"lat":37.8007324,"lng":-122.4079689,"name":"Don Pistos","amenity":"restaurant","type":"venue","outdoorSeating":false,"cuisine":"mexican","website":"https://www.donpistos.com/","address":"510 Union Street"},{"id":378440021,"lat":37.7649457,"lng":-122.4235379,"name":"ABV","amenity":"bar","type":"venue","outdoorSeating":true,"cuisine":null,"website":"https://www.abvsf.com/","address":"3174 16th Street"},{"id":378743791,"lat":37.8110757,"lng":-122.4102453,"name":"Bubba Gump Shrimp Company","amenity":"restaurant","type":"venue","outdoorSeating":false,"cuisine":"seafood","website":null,"address":null},{"id":380314308,"lat":37.7866568,"lng":-122.4146557,"name":"Osha BBQ","amenity":"restaurant","type":"venue","outdoorSeating":false,"cuisine":"thai","website":null,"address":"696 Geary Street"},{"id":383502127,"lat":37.7866072,"lng":-122.409593,"name":"Cafe Mason","amenity":"restaurant","type":"venue","outdoorSeating":false,"cuisine":"international;mexican","website":"https://www.masondiner.com/","address":"320 Mason Street"},{"id":383507544,"lat":37.7870044,"lng":-122.4099933,"name":"Pinecrest Diner","amenity":"restaurant","type":"venue","outdoorSeating":false,"cuisine":"american","website":"https://pinecrestdiner.com/","address":"401 Geary Street"},{"id":387250842,"lat":37.7949042,"lng":-122.4234947,"name":"Happy Donut","amenity":"restaurant","type":"venue","outdoorSeating":false,"cuisine":null,"website":null,"address":"2101 Van Ness Avenue"},{"id":388217934,"lat":37.7952878,"lng":-122.418125,"name":"Collina","amenity":"restaurant","type":"venue","outdoorSeating":false,"cuisine":null,"website":null,"address":"1550 Hyde Street"},{"id":393134624,"lat":37.7855464,"lng":-122.4216191,"name":"Tommy's Joynt","amenity":"restaurant","type":"venue","outdoorSeating":false,"cuisine":null,"website":null,"address":null},{"id":409485213,"lat":37.7755132,"lng":-122.4988507,"name":"The Laundromat SF","amenity":"restaurant","type":"venue","outdoorSeating":false,"cuisine":"pizza;bagel","website":null,"address":"3725 Balboa Street"},{"id":410845445,"lat":37.7901681,"lng":-122.4154112,"name":"Another Cafe","amenity":"cafe","type":"venue","outdoorSeating":false,"cuisine":"coffee_shop","website":"https://www.anothercafesf.com/","address":"1191 Pine Street"},{"id":411083201,"lat":37.7670162,"lng":-122.4219251,"name":"Four Barrel Coffee","amenity":"cafe","type":"venue","outdoorSeating":true,"cuisine":"coffee_shop","website":null,"address":"375 Valencia Street"},{"id":412086707,"lat":37.7989098,"lng":-122.4225313,"name":"Little Kitchen","amenity":"restaurant","type":"venue","outdoorSeating":false,"cuisine":"chinese","website":null,"address":"2401 Polk Street"},{"id":416683850,"lat":37.799938,"lng":-122.4422747,"name":"Asa Sushi","amenity":"restaurant","type":"venue","outdoorSeating":false,"cuisine":"sushi","website":"http://www.asasushisf.com/","address":"2365 Chestnut Street"},{"id":416783945,"lat":37.8001729,"lng":-122.4405522,"name":"Squat & Gobble","amenity":"restaurant","type":"venue","outdoorSeating":true,"cuisine":"american","website":"https://squatandgobble.com/","address":"2263 Chestnut Street"},{"id":417235672,"lat":37.7694735,"lng":-122.5102178,"name":"Beach Chalet","amenity":"restaurant","type":"venue","outdoorSeating":false,"cuisine":"western;grill","website":"https://www.beachchalet.com/","address":null},{"id":417235974,"lat":37.7694736,"lng":-122.5099836,"name":"Beach Chalet Brewery & Restaurant","amenity":"restaurant","type":"venue","outdoorSeating":false,"cuisine":"western;grill","website":"https://www.parkchalet.com","address":"1000 Great Highway"},{"id":418513660,"lat":37.7645003,"lng":-122.4216812,"name":"Muddy Waters","amenity":"cafe","type":"venue","outdoorSeating":false,"cuisine":null,"website":null,"address":"521 Valencia Street"},{"id":418513730,"lat":37.7648614,"lng":-122.4210768,"name":"Pancho Villa","amenity":"restaurant","type":"venue","outdoorSeating":false,"cuisine":"mexican","website":"https://sfpanchovilla.com/","address":"3071 16th Street"},{"id":418514113,"lat":37.7634365,"lng":-122.4219094,"name":"El Toro","amenity":"restaurant","type":"venue","outdoorSeating":false,"cuisine":null,"website":null,"address":"598 Valencia Street"},{"id":418540495,"lat":37.7867153,"lng":-122.4125033,"name":"Swig","amenity":"bar","type":"venue","outdoorSeating":false,"cuisine":null,"website":"http://www.swig-bar.com/","address":"561 Geary Street"},{"id":432817704,"lat":37.783027,"lng":-122.4211055,"name":"Round Table Pizza","amenity":"restaurant","type":"venue","outdoorSeating":false,"cuisine":"pizza","website":null,"address":"801 Van Ness Avenue"},{"id":432817745,"lat":37.7830473,"lng":-122.420622,"name":"Ike's Kitchen","amenity":"restaurant","type":"venue","outdoorSeating":false,"cuisine":"sushi","website":"https://www.ikeskitchensf.com/","address":"800 Van Ness Avenue"},{"id":432822679,"lat":37.7832465,"lng":-122.4190847,"name":"Son & Garden","amenity":"restaurant","type":"venue","outdoorSeating":false,"cuisine":null,"website":"https://sonandgarden.com/san-francisco","address":"700 Polk Street"},{"id":432823131,"lat":37.7830769,"lng":-122.4203496,"name":"Pronto Pizza & Espresso","amenity":"restaurant","type":"venue","outdoorSeating":false,"cuisine":null,"website":null,"address":"798 Eddy Street"},{"id":432826454,"lat":37.7839089,"lng":-122.4196454,"name":"Jarin Thia Cuisine","amenity":"restaurant","type":"venue","outdoorSeating":false,"cuisine":null,"website":null,"address":null},{"id":437549643,"lat":37.7419005,"lng":-122.5047802,"name":"Underdogs Too","amenity":"restaurant","type":"venue","outdoorSeating":true,"cuisine":"mexican","website":"https://undrdogstoo.com","address":"3600 Taraval Street"},{"id":440104799,"lat":37.7996879,"lng":-122.4085388,"name":"Chubby Noodle","amenity":"restaurant","type":"venue","outdoorSeating":true,"cuisine":"noodle","website":"https://www.chubbynoodle.com/north-beach","address":"570 Green Street"},{"id":440106745,"lat":37.7997072,"lng":-122.4084174,"name":"Columbus Cafe","amenity":"bar","type":"venue","outdoorSeating":false,"cuisine":null,"website":"https://www.columbuscafesf.com/","address":"562 Green Street"},{"id":440110077,"lat":37.7997189,"lng":-122.4083215,"name":"Sotto Mare","amenity":"restaurant","type":"venue","outdoorSeating":true,"cuisine":"italian;seafood","website":"https://www.sottomaresf.com/","address":"552 Green Street"},{"id":443372068,"lat":37.7564325,"lng":-122.4212469,"name":"Ritual Coffee Roasters","amenity":"cafe","type":"venue","outdoorSeating":true,"cuisine":"coffee_shop","website":"https://ritualroasters.com/","address":"1026 Valencia Street"},{"id":448036308,"lat":37.7825821,"lng":-122.4696222,"name":"Shabu club","amenity":"restaurant","type":"venue","outdoorSeating":false,"cuisine":"asian;japanese","website":null,"address":"951 Clement Street"},{"id":448036312,"lat":37.7826281,"lng":-122.4688161,"name":"All Stars","amenity":"cafe","type":"venue","outdoorSeating":false,"cuisine":"donut","website":null,"address":"901 Clement Street"},{"id":448038877,"lat":37.7829328,"lng":-122.4677871,"name":"Hamburger Haven","amenity":"restaurant","type":"venue","outdoorSeating":false,"cuisine":"burger","website":null,"address":"800 Clement Street"},{"id":448038881,"lat":37.7829843,"lng":-122.4610835,"name":"Giorgio's Pizza","amenity":"restaurant","type":"venue","outdoorSeating":false,"cuisine":"pizza","website":"https://www.giorgiospizza.com/","address":"151 Clement Street"},{"id":448038882,"lat":37.7832278,"lng":-122.4613841,"name":"Cumaica Coffee","amenity":"cafe","type":"venue","outdoorSeating":false,"cuisine":"coffee","website":null,"address":"200 Clement Street"},{"id":448038883,"lat":37.7830635,"lng":-122.4592197,"name":"Rose Pizzeria","amenity":"restaurant","type":"venue","outdoorSeating":true,"cuisine":"pizza","website":"https://www.rosepizzeria.com/","address":"1 Clement Street"},{"id":459507740,"lat":37.7672111,"lng":-122.4288056,"name":"Tavola Rustica","amenity":"restaurant","type":"venue","outdoorSeating":false,"cuisine":"italian","website":"https://www.tavolarustica.com/","address":"215 Church Street"},{"id":477129154,"lat":37.8061593,"lng":-122.4225336,"name":"McCormick & Schmick's","amenity":"restaurant","type":"venue","outdoorSeating":false,"cuisine":"seafood;steak","website":"https://www.mccormickandschmicks.com/location/mccormick-kuletos-san-francisco-ca/","address":"900 North Point Street"},{"id":479491671,"lat":37.7882367,"lng":-122.4012873,"name":"House of Shields","amenity":"bar","type":"venue","outdoorSeating":false,"cuisine":null,"website":"https://www.thehouseofshields.com/","address":"39 New Montgomery Street"},{"id":493884683,"lat":37.7641516,"lng":-122.4668086,"name":"Inle Burmese Cuisine","amenity":"restaurant","type":"venue","outdoorSeating":false,"cuisine":"burmese;thai;asian","website":"https://inleburmesecuisine.com","address":"822 Irving Street"},{"id":497304213,"lat":37.7641538,"lng":-122.4219808,"name":"Puerto Allegre","amenity":"restaurant","type":"venue","outdoorSeating":false,"cuisine":"mexican","website":null,"address":"546 Valencia Street"},{"id":527745558,"lat":37.7211567,"lng":-122.4372846,"name":"El Farolito","amenity":"restaurant","type":"venue","outdoorSeating":false,"cuisine":"mexican","website":null,"address":null},{"id":528057543,"lat":37.7682118,"lng":-122.422385,"name":"Carlin's Cafe","amenity":"cafe","type":"venue","outdoorSeating":false,"cuisine":null,"website":null,"address":"298 Valencia Street"},{"id":528511751,"lat":37.7649404,"lng":-122.4239386,"name":"Arepas","amenity":"restaurant","type":"venue","outdoorSeating":false,"cuisine":"latin_american","website":null,"address":"3198 16th Street"},{"id":529117811,"lat":37.7649453,"lng":-122.4236628,"name":"Pakwan","amenity":"restaurant","type":"venue","outdoorSeating":true,"cuisine":"indian;pakistani","website":"https://pakwanrestaurant.com/guerrero/","address":"3180-82 16th Street"},{"id":529771968,"lat":37.7706731,"lng":-122.4252744,"name":"The Orbit Room","amenity":"bar","type":"venue","outdoorSeating":false,"cuisine":null,"website":"https://www.orbitroomsf.com/","address":"1900 Market Street"},{"id":529772421,"lat":37.7763523,"lng":-122.4263728,"name":"Suppenküche","amenity":"restaurant","type":"venue","outdoorSeating":true,"cuisine":"german","website":"https://www.suppenkuche.com/","address":"525 Laguna Street"},{"id":529777817,"lat":37.785912,"lng":-122.4131628,"name":"Bourbon and Branch","amenity":"bar","type":"venue","outdoorSeating":false,"cuisine":null,"website":"https://www.bourbonandbranch.com/","address":"501 Jones Street"},{"id":540452285,"lat":37.7614146,"lng":-122.424342,"name":"Delfina","amenity":"restaurant","type":"venue","outdoorSeating":true,"cuisine":"italian;pizza","website":"https://www.delfinasf.com/","address":"3621 18th Street"},{"id":571459412,"lat":37.7624401,"lng":-122.3973397,"name":"Mochica","amenity":"restaurant","type":"venue","outdoorSeating":false,"cuisine":"peruvian","website":"https://mochicasf.com/","address":"1469 18th Street"},{"id":571460529,"lat":37.7624058,"lng":-122.3976476,"name":"Goat Hill Pizza","amenity":"restaurant","type":"venue","outdoorSeating":false,"cuisine":"pizza","website":"http://www.goathill.com","address":"300 Connecticut Street"},{"id":582133717,"lat":37.7959908,"lng":-122.4063137,"name":"Golden Flower","amenity":"restaurant","type":"venue","outdoorSeating":false,"cuisine":null,"website":null,"address":"667 Jackson Street"},{"id":582778903,"lat":37.7485396,"lng":-122.4250659,"name":"U and I","amenity":"cafe","type":"venue","outdoorSeating":false,"cuisine":null,"website":null,"address":"1300 Dolores Street"},{"id":582779493,"lat":37.7504256,"lng":-122.4203499,"name":"Clooney's Pub","amenity":"bar","type":"venue","outdoorSeating":false,"cuisine":null,"website":null,"address":"1401 Valencia Street"},{"id":582781745,"lat":37.7489951,"lng":-122.4205203,"name":"Dovre Club","amenity":"bar","type":"venue","outdoorSeating":false,"cuisine":null,"website":null,"address":"1498 Valencia Street"},{"id":586719219,"lat":37.7653117,"lng":-122.4314325,"name":"Tara Indian Cuisine","amenity":"restaurant","type":"venue","outdoorSeating":false,"cuisine":"indian","website":null,"address":"2217 Market Street"},{"id":586754870,"lat":37.7618585,"lng":-122.4352856,"name":"Thailand Restaurant","amenity":"restaurant","type":"venue","outdoorSeating":false,"cuisine":"thai","website":"https://thailandrestaurantsf.com/","address":"438A Castro Street"},{"id":586756670,"lat":37.7615387,"lng":-122.435255,"name":"Fratelli Pizza","amenity":"restaurant","type":"venue","outdoorSeating":false,"cuisine":"pizza","website":null,"address":"460 Castro Street"},{"id":599417363,"lat":37.7543118,"lng":-122.4777235,"name":"Golden Island Cafe","amenity":"cafe","type":"venue","outdoorSeating":false,"cuisine":null,"website":null,"address":"1300 Noriega Street"},{"id":612765095,"lat":37.7997743,"lng":-122.4089177,"name":"North Beach Restaurant","amenity":"restaurant","type":"venue","outdoorSeating":false,"cuisine":null,"website":null,"address":"1512 Stockton Street"},{"id":613270075,"lat":37.7998684,"lng":-122.4098389,"name":"Compton's Coffe House","amenity":"cafe","type":"venue","outdoorSeating":false,"cuisine":"coffee_shop","website":"https://www.comptonscoffee.com/","address":"543 Columbus Avenue"},{"id":621793525,"lat":37.7877422,"lng":-122.4119192,"name":"Sakana","amenity":"restaurant","type":"venue","outdoorSeating":false,"cuisine":"sushi","website":"https://sakanasf.com/","address":"605 Post Street"},{"id":621793529,"lat":37.7877507,"lng":-122.4118412,"name":"Owl Tree","amenity":"bar","type":"venue","outdoorSeating":false,"cuisine":null,"website":"https://www.owltreesf.com/","address":"601 Post Street"},{"id":621793599,"lat":37.7876806,"lng":-122.4124552,"name":"Zzan","amenity":"restaurant","type":"venue","outdoorSeating":false,"cuisine":"korean","website":"https://www.zzansf.com/","address":"643 Post Street"},{"id":621818322,"lat":37.7887156,"lng":-122.410067,"name":"Akiko's Sushi Bar","amenity":"restaurant","type":"venue","outdoorSeating":false,"cuisine":"sushi","website":"https://akikossushibar.com/","address":"542 Mason Street"},{"id":621818366,"lat":37.7881935,"lng":-122.4103007,"name":"Level III","amenity":"bar","type":"venue","outdoorSeating":false,"cuisine":null,"website":null,"address":null},{"id":621818383,"lat":37.7878201,"lng":-122.4113142,"name":"Lost Cat","amenity":"bar","type":"venue","outdoorSeating":false,"cuisine":null,"website":"https://www.lostcatsf.com/","address":"587 Post Street"},{"id":621818396,"lat":37.787943,"lng":-122.4103385,"name":"Zingari","amenity":"restaurant","type":"venue","outdoorSeating":false,"cuisine":null,"website":null,"address":null},{"id":621818430,"lat":37.7877886,"lng":-122.41155,"name":"Honey Honey Cafe & Crepery","amenity":"restaurant","type":"venue","outdoorSeating":false,"cuisine":"crepe","website":null,"address":"599 Post Street"},{"id":621851558,"lat":37.7888432,"lng":-122.4109312,"name":"The White Horse","amenity":"restaurant","type":"venue","outdoorSeating":false,"cuisine":null,"website":null,"address":null},{"id":621851561,"lat":37.7887552,"lng":-122.4115279,"name":"Matador","amenity":"restaurant","type":"venue","outdoorSeating":false,"cuisine":"mexican","website":"https://matadorsf.com/","address":"679 Sutter Street"},{"id":621851563,"lat":37.7889047,"lng":-122.4103786,"name":"Cesario's","amenity":"restaurant","type":"venue","outdoorSeating":false,"cuisine":"italian","website":null,"address":"601 Sutter Street"},{"id":630746097,"lat":37.801867,"lng":-122.456201,"name":"Il Parco","amenity":"cafe","type":"venue","outdoorSeating":false,"cuisine":null,"website":"https://ilparcosf.com/","address":"215 Lincoln Boulevard"},{"id":630985352,"lat":37.794484,"lng":-122.401644,"name":"Mixt Greens","amenity":"restaurant","type":"venue","outdoorSeating":false,"cuisine":"salad","website":null,"address":null},{"id":630988578,"lat":37.794293,"lng":-122.401731,"name":"Tlaloc","amenity":"restaurant","type":"venue","outdoorSeating":false,"cuisine":"mexican","website":"https://tlalocsf.com/","address":"525 Commercial Street"},{"id":632725242,"lat":37.7373354,"lng":-122.4695681,"name":"Greenhouse","amenity":"cafe","type":"venue","outdoorSeating":false,"cuisine":null,"website":null,"address":"329 West Portal Avenue"},{"id":632734629,"lat":37.7378024,"lng":-122.4690205,"name":"Lion West Portal","amenity":"restaurant","type":"venue","outdoorSeating":false,"cuisine":"sushi","website":"https://lionwestportal.com/","address":"301 West Portal Avenue"},{"id":632741467,"lat":37.7392776,"lng":-122.4678107,"name":"Toast Eatery","amenity":"restaurant","type":"venue","outdoorSeating":false,"cuisine":null,"website":null,"address":"160 West Portal Avenue"},{"id":632817679,"lat":37.7386468,"lng":-122.4685481,"name":"Binu Bonu","amenity":"bar","type":"venue","outdoorSeating":false,"cuisine":null,"website":null,"address":"230 West Portal Avenue"},{"id":632873440,"lat":37.7370913,"lng":-122.4698222,"name":"Tsing’s Chinese Restaurant","amenity":"restaurant","type":"venue","outdoorSeating":false,"cuisine":"chinese","website":null,"address":"351 West Portal Avenue"},{"id":632874790,"lat":37.7365836,"lng":-122.4703445,"name":"Little Original Joe's","amenity":"restaurant","type":"venue","outdoorSeating":false,"cuisine":"italian","website":"https://www.littleoriginaljoes.com/","address":"393 West Portal Avenue"},{"id":638752547,"lat":37.7397088,"lng":-122.4673069,"name":"Starbucks","amenity":"cafe","type":"venue","outdoorSeating":false,"cuisine":"coffee_shop","website":"https://www.starbucks.com/store-locator/store/9128/100-west-portal-vicente-100-west-portal-san-francisco-ca-941271306-us","address":"100 West Portal Avenue"},{"id":642814585,"lat":37.7972321,"lng":-122.424077,"name":"Matterhorn","amenity":"restaurant","type":"venue","outdoorSeating":false,"cuisine":"swiss;fondue","website":null,"address":"2323 Van Ness Avenue"},{"id":643445596,"lat":37.8086628,"lng":-122.409827,"name":"Hard Rock Cafe","amenity":"restaurant","type":"venue","outdoorSeating":false,"cuisine":"american","website":"https://www.hardrock.com","address":null},{"id":647656706,"lat":37.7710569,"lng":-122.432071,"name":"Cafe Réveille","amenity":"cafe","type":"venue","outdoorSeating":true,"cuisine":"sandwich;coffee_shop;salad;breakfast","website":"https://www.cafereveille.com/lowerhaight","address":"201 Steiner Street"},{"id":647656739,"lat":37.7718146,"lng":-122.433633,"name":"Bar Jabroni","amenity":"restaurant","type":"venue","outdoorSeating":false,"cuisine":null,"website":null,"address":"698 Haight Street"},{"id":647656754,"lat":37.7720659,"lng":-122.4315927,"name":"Uva Enoteca","amenity":"restaurant","type":"venue","outdoorSeating":false,"cuisine":"italian","website":"https://www.uvaenoteca.com/","address":"568 Haight Street"},{"id":647656759,"lat":37.7720798,"lng":-122.4298755,"name":"Kate's Kitchen","amenity":"restaurant","type":"venue","outdoorSeating":false,"cuisine":"american;breakfast;sandwich","website":"http://katieskitchen.com","address":"471 Haight Street"},{"id":647656762,"lat":37.7722509,"lng":-122.4302258,"name":"House of Thai 2","amenity":"restaurant","type":"venue","outdoorSeating":false,"cuisine":"thai","website":null,"address":"494 Haight Street"},{"id":647656785,"lat":37.7721773,"lng":-122.4307315,"name":"Cafe International","amenity":"cafe","type":"venue","outdoorSeating":false,"cuisine":null,"website":null,"address":"Haight Street"},{"id":647656805,"lat":37.7716958,"lng":-122.4305216,"name":"Indian Oven","amenity":"restaurant","type":"venue","outdoorSeating":false,"cuisine":"indian","website":"https://indianovensf.com/","address":"233 Fillmore Street"},{"id":666369832,"lat":37.7666454,"lng":-122.4528662,"name":"Lava Java","amenity":"cafe","type":"venue","outdoorSeating":false,"cuisine":"coffee_shop","website":null,"address":"852 Stanyan Street"},{"id":677681773,"lat":37.7429854,"lng":-122.4267774,"name":"Taffi's Cafe","amenity":"restaurant","type":"venue","outdoorSeating":false,"cuisine":"american","website":null,"address":"1748 Church Street"},{"id":679010814,"lat":37.7755634,"lng":-122.3933972,"name":"Philz Coffee","amenity":"cafe","type":"venue","outdoorSeating":false,"cuisine":"coffee_shop","website":"https://philzcoffee.com/locations/17","address":"201 Berry Street"},{"id":693507981,"lat":37.7979631,"lng":-122.4295323,"name":"KAIYŌ","amenity":"restaurant","type":"venue","outdoorSeating":false,"cuisine":"japanese;peruvian;asian","website":"https://kaiyosf.com","address":"1838 Union Street"},{"id":696034559,"lat":37.7962462,"lng":-122.4040992,"name":"Sai's Vietnamese Restaurant","amenity":"restaurant","type":"venue","outdoorSeating":false,"cuisine":"vietnamese;noodle;pho;sandwich","website":"https://saisvietnameserestaurant.com/","address":"42 Columbus Avenue"},{"id":702434594,"lat":37.7421556,"lng":-122.4990662,"name":"North Beach Pizza","amenity":"restaurant","type":"venue","outdoorSeating":false,"cuisine":"pizza","website":"https://northbeachpizza.net/","address":"3054 Taraval Street"},{"id":705410439,"lat":37.759835,"lng":-122.397803,"name":"Thinker's Cafe","amenity":"cafe","type":"venue","outdoorSeating":false,"cuisine":null,"website":null,"address":null},{"id":709871143,"lat":37.798016,"lng":-122.4019871,"name":"Henry's Hunan","amenity":"restaurant","type":"venue","outdoorSeating":false,"cuisine":null,"website":"https://www.henryshunanrestaurant.com/","address":null},{"id":718375671,"lat":37.7421628,"lng":-122.4988996,"name":"Win's Restaurant","amenity":"restaurant","type":"venue","outdoorSeating":false,"cuisine":"chinese","website":null,"address":"3040 Taraval Street"},{"id":718375672,"lat":37.7421579,"lng":-122.499011,"name":"Vanida Thai Kitchen","amenity":"restaurant","type":"venue","outdoorSeating":false,"cuisine":"thai","website":"http://www.vanidataraval.com/","address":"3050 Taraval Street"},{"id":718375781,"lat":37.7421772,"lng":-122.4985695,"name":"Andytown Coffee Roasters","amenity":"cafe","type":"venue","outdoorSeating":false,"cuisine":"coffee_shop","website":null,"address":"3016 Taraval Street"},{"id":725066744,"lat":37.7868113,"lng":-122.4135614,"name":"Pharaohs Mediterranean Sandwiches","amenity":"restaurant","type":"venue","outdoorSeating":false,"cuisine":"mediterranean;egyptian","website":"http://pharaohssf.com","address":"608 Geary Street"},{"id":725066841,"lat":37.7866698,"lng":-122.4145242,"name":"Rye","amenity":"bar","type":"venue","outdoorSeating":false,"cuisine":null,"website":null,"address":"688 Geary Street"},{"id":725096408,"lat":37.7872157,"lng":-122.4103202,"name":"The Thonglor","amenity":"restaurant","type":"venue","outdoorSeating":false,"cuisine":"thai","website":"https://www.thonglorsf.com/","address":"420 Geary Street"},{"id":725096410,"lat":37.78721,"lng":-122.4103959,"name":"Bentotaro","amenity":"restaurant","type":"venue","outdoorSeating":false,"cuisine":"sushi","website":"http://www.katanayausa.com/","address":"430 Geary Street"},{"id":725096449,"lat":37.7869597,"lng":-122.4124456,"name":"The Mortimer","amenity":"bar","type":"venue","outdoorSeating":false,"cuisine":null,"website":"https://www.marriott.com/en-us/hotels/sfoak-hotel-adagio-autograph-collection/dining/","address":null},{"id":725096451,"lat":37.7868056,"lng":-122.4116645,"name":"Tratto","amenity":"restaurant","type":"venue","outdoorSeating":false,"cuisine":"italian;pizza","website":"https://www.tratto-sf.com/","address":"501 Geary Street"},{"id":725100818,"lat":37.7871313,"lng":-122.4111897,"name":"Bota Tapas & Paella Bar","amenity":"restaurant","type":"venue","outdoorSeating":false,"cuisine":"spanish","website":null,"address":null},{"id":725100821,"lat":37.7871576,"lng":-122.4110257,"name":"David's Delicatessen & Diner","amenity":"restaurant","type":"venue","outdoorSeating":false,"cuisine":"deli","website":null,"address":"474 Geary Street"},{"id":725100826,"lat":37.7871616,"lng":-122.410725,"name":"Starbucks","amenity":"cafe","type":"venue","outdoorSeating":false,"cuisine":"coffee_shop","website":null,"address":"442 Geary Street"},{"id":725100831,"lat":37.7873155,"lng":-122.4100569,"name":"Biscuits & Blues","amenity":"restaurant","type":"venue","outdoorSeating":false,"cuisine":null,"website":"https://biscuitsandblues.com/","address":"401 Mason Street"},{"id":731950222,"lat":37.7860796,"lng":-122.4175502,"name":"A La Turca","amenity":"restaurant","type":"venue","outdoorSeating":false,"cuisine":"turkish","website":null,"address":"869 Geary Street"},{"id":731989597,"lat":37.7860647,"lng":-122.4177353,"name":"Moulin Rouge Restaurant","amenity":"restaurant","type":"venue","outdoorSeating":false,"cuisine":"american","website":null,"address":"887 Geary Street"},{"id":732005643,"lat":37.7862004,"lng":-122.4182771,"name":"House of Thai","amenity":"restaurant","type":"venue","outdoorSeating":false,"cuisine":"thai","website":"https://www.houseofthaisf.com/","address":"901 Larkin Street"},{"id":732009027,"lat":37.7869168,"lng":-122.4184005,"name":"Ping Yang","amenity":"restaurant","type":"venue","outdoorSeating":false,"cuisine":"thai","website":"https://www.pingyangthaigrilldessert.com/","address":"955 Larkin Street"},{"id":732009028,"lat":37.7869519,"lng":-122.4201047,"name":"Piroo","amenity":"restaurant","type":"venue","outdoorSeating":false,"cuisine":"nepalese","website":null,"address":"1101 Polk Street"},{"id":732009035,"lat":37.7856068,"lng":-122.4211337,"name":"Mel's Kitchen","amenity":"restaurant","type":"venue","outdoorSeating":false,"cuisine":"american;breakfast","website":"https://melsdrive-in.com/locations/northern-california/mels-kitchen-now-open/","address":"1050 Van Ness Avenue"},{"id":732009037,"lat":37.7857065,"lng":-122.4205221,"name":"Taniku Izakaya","amenity":"restaurant","type":"venue","outdoorSeating":false,"cuisine":null,"website":null,"address":"1035 Geary Street"},{"id":747853234,"lat":37.7968098,"lng":-122.421809,"name":"Hummus Mediterranean Kitchen","amenity":"restaurant","type":"venue","outdoorSeating":false,"cuisine":"mediterranean","website":null,"address":"2164 Polk Street"},{"id":761906611,"lat":37.77581,"lng":-122.4088161,"name":"Bloodhound","amenity":"bar","type":"venue","outdoorSeating":false,"cuisine":null,"website":null,"address":"1145 Folsom Street"},{"id":761916174,"lat":37.7765167,"lng":-122.4083959,"name":"Nosh Box","amenity":"cafe","type":"venue","outdoorSeating":false,"cuisine":"pastry; sandwich; coffee; tea","website":"https://www.noshboxsf.com/","address":"1116 Folsom Street"},{"id":765404278,"lat":37.7830438,"lng":-122.4076714,"name":"Sushi Hashiri","amenity":"restaurant","type":"venue","outdoorSeating":false,"cuisine":"sushi","website":null,"address":"4 Mint Plaza"},{"id":766264586,"lat":37.7989045,"lng":-122.4222247,"name":"Leopold's","amenity":"restaurant","type":"venue","outdoorSeating":false,"cuisine":"german","website":"https://www.leopoldssf.com/","address":"2400 Polk Street"},{"id":768936339,"lat":37.7860337,"lng":-122.4094373,"name":"Anzu Restaurant","amenity":"restaurant","type":"venue","outdoorSeating":false,"cuisine":null,"website":null,"address":"222 Mason Street"},{"id":774058165,"lat":37.7533732,"lng":-122.4184227,"name":"La Corneta","amenity":"restaurant","type":"venue","outdoorSeating":false,"cuisine":"mexican","website":"https://lacorneta.com/lacornetamissionst","address":"2731 Mission Street"},{"id":775379090,"lat":37.7857739,"lng":-122.39675,"name":"Radiator","amenity":"cafe","type":"venue","outdoorSeating":false,"cuisine":"coffee_shop","website":null,"address":null},{"id":806236997,"lat":37.7953032,"lng":-122.4059915,"name":"Chinatown Restaurant","amenity":"restaurant","type":"venue","outdoorSeating":false,"cuisine":null,"website":null,"address":"744 Washington Street"},{"id":808884842,"lat":37.7854683,"lng":-122.409082,"name":"New Delhi","amenity":"restaurant","type":"venue","outdoorSeating":false,"cuisine":"indian","website":null,"address":"160 Ellis Street"},{"id":808884850,"lat":37.7857169,"lng":-122.4089486,"name":"Miyabiya Sushi and Grill","amenity":"restaurant","type":"venue","outdoorSeating":false,"cuisine":"japanese;sushi","website":"https://www.miyabiyasf.com/","address":"115 Cyril Magnin Street"},{"id":808884854,"lat":37.7856882,"lng":-122.4086687,"name":"Magnin Street Cafe & Bistro","amenity":"restaurant","type":"venue","outdoorSeating":false,"cuisine":null,"website":null,"address":"138 Cyril Magnin Street"},{"id":808884908,"lat":37.7855488,"lng":-122.4088875,"name":"King Kee","amenity":"restaurant","type":"venue","outdoorSeating":false,"cuisine":"chinese;bubble_tea","website":null,"address":"101 Cyril Magnin Street"},{"id":808884914,"lat":37.7854715,"lng":-122.4089827,"name":"Mellis Cafe","amenity":"cafe","type":"venue","outdoorSeating":true,"cuisine":null,"website":null,"address":"Ellis Street"},{"id":808930679,"lat":37.7859734,"lng":-122.4103397,"name":"Urban Tavern","amenity":"restaurant","type":"venue","outdoorSeating":false,"cuisine":null,"website":null,"address":null},{"id":808930684,"lat":37.786117,"lng":-122.4115193,"name":"Jasper's","amenity":"bar","type":"venue","outdoorSeating":false,"cuisine":null,"website":null,"address":"401 Taylor Street"},{"id":808930689,"lat":37.7856557,"lng":-122.4114124,"name":"Million Thai","amenity":"restaurant","type":"venue","outdoorSeating":false,"cuisine":null,"website":null,"address":"385 Taylor Street"},{"id":808930715,"lat":37.7862839,"lng":-122.408395,"name":"Hinodeya Ramen & Bar","amenity":"restaurant","type":"venue","outdoorSeating":false,"cuisine":"noodle;ramen","website":"https://hinodeyaramen.com/","address":"219 O'Farrell Street"},{"id":808930741,"lat":37.7865355,"lng":-122.4081957,"name":"Starbucks","amenity":"cafe","type":"venue","outdoorSeating":false,"cuisine":"coffee_shop","website":"https://www.starbucks.com/store-locator/store/1040470/powell-o-farrell-201-powell-street-san-francisco-ca-941022205-us","address":"201 Powell Street"},{"id":808930783,"lat":37.7866824,"lng":-122.407058,"name":"Boudin","amenity":"cafe","type":"venue","outdoorSeating":true,"cuisine":null,"website":"https://boudinbakery.com/location/union-square-macys-bakery-cafe/","address":null},{"id":808930789,"lat":37.786587,"lng":-122.4077192,"name":"King of Thai Noodle","amenity":"restaurant","type":"venue","outdoorSeating":false,"cuisine":null,"website":null,"address":"184 O'Farrell Street"},{"id":818060724,"lat":37.7855009,"lng":-122.4144707,"name":"El Tesoro","amenity":"restaurant","type":"venue","outdoorSeating":false,"cuisine":"mexican","website":null,"address":"599 O'Farrell Street"},{"id":818060761,"lat":37.7856875,"lng":-122.4131188,"name":"Pakwan","amenity":"restaurant","type":"venue","outdoorSeating":false,"cuisine":"indian;pakistani","website":"https://pakwanrestaurant.com/oferrell/","address":"501 O'Farrell Street"},{"id":818060781,"lat":37.7858554,"lng":-122.4117764,"name":"Marrakech","amenity":"restaurant","type":"venue","outdoorSeating":false,"cuisine":"moroccan","website":"https://www.marrakechsf.com/","address":"419 O'Farrell Street"},{"id":818671268,"lat":37.7865372,"lng":-122.4200101,"name":"Napoli Pizza","amenity":"restaurant","type":"venue","outdoorSeating":false,"cuisine":"italian","website":null,"address":"1045 Polk Street"},{"id":819444945,"lat":37.788309,"lng":-122.4203983,"name":"Mayes Oyster House","amenity":"restaurant","type":"venue","outdoorSeating":false,"cuisine":null,"website":null,"address":"1233 Polk Street"},{"id":819444963,"lat":37.788461,"lng":-122.4204131,"name":"Rise & Set","amenity":"restaurant","type":"venue","outdoorSeating":false,"cuisine":null,"website":"https://www.riseandsetsf.com/","address":"1247 Polk Street"},{"id":819445003,"lat":37.7878865,"lng":-122.4200201,"name":"El Super Burrito","amenity":"restaurant","type":"venue","outdoorSeating":false,"cuisine":"mexican","website":null,"address":"1200 Polk Street"},{"id":819445010,"lat":37.7878494,"lng":-122.4203205,"name":"Sliders","amenity":"restaurant","type":"venue","outdoorSeating":false,"cuisine":"burger;falafel;shawarma","website":null,"address":"1202 Sutter Street"},{"id":819445015,"lat":37.7881282,"lng":-122.4200791,"name":"Crepes Ooh La La","amenity":"cafe","type":"venue","outdoorSeating":false,"cuisine":null,"website":null,"address":"1220 Polk Street"},{"id":819445062,"lat":37.7873905,"lng":-122.4199021,"name":"Wen's Kitchen","amenity":"restaurant","type":"venue","outdoorSeating":false,"cuisine":"chinese","website":null,"address":"1150 Polk Street"},{"id":819447654,"lat":37.7889803,"lng":-122.4171394,"name":"Crostini & Java","amenity":"cafe","type":"venue","outdoorSeating":false,"cuisine":"coffee_shop;sandwich","website":"https://www.crostiniandjava.com/","address":"899 Hyde Street"},{"id":819447661,"lat":37.7885606,"lng":-122.4170536,"name":"Colombini","amenity":"restaurant","type":"venue","outdoorSeating":false,"cuisine":"italian","website":"https://colombinibistro.com/","address":"835 Hyde Street"},{"id":825914906,"lat":37.7892432,"lng":-122.420564,"name":"Ben Thai Cafe","amenity":"restaurant","type":"venue","outdoorSeating":false,"cuisine":"thai","website":"https://www.benthaicafe.com/","address":"1331 Polk Street"},{"id":825914922,"lat":37.7894572,"lng":-122.4203355,"name":"Piccadilly Fish & Chips","amenity":"restaurant","type":"venue","outdoorSeating":false,"cuisine":null,"website":null,"address":"1348 Polk Street"},{"id":825915002,"lat":37.7888701,"lng":-122.4204876,"name":"Aicha","amenity":"restaurant","type":"venue","outdoorSeating":false,"cuisine":"moroccan","website":null,"address":"1303 Polk Street"},{"id":825915019,"lat":37.7890756,"lng":-122.4205448,"name":"El Lopo","amenity":"bar","type":"venue","outdoorSeating":false,"cuisine":null,"website":"https://www.elloposf.com/","address":"1327 Polk Street"},{"id":825966983,"lat":37.7907793,"lng":-122.420879,"name":"Ti Piacera","amenity":"restaurant","type":"venue","outdoorSeating":false,"cuisine":"mediterranean;italian","website":null,"address":"1507 Polk Street"},{"id":825966994,"lat":37.7908756,"lng":-122.4209036,"name":"Nara Sushi","amenity":"restaurant","type":"venue","outdoorSeating":false,"cuisine":null,"website":"https://www.sfnarasushi.com/","address":"1515 Polk Street"},{"id":825967002,"lat":37.7909693,"lng":-122.4209185,"name":"Swan Oyster Depot","amenity":"restaurant","type":"venue","outdoorSeating":false,"cuisine":null,"website":"https://swanoysterdepot.net/","address":"1517 Polk Street"},{"id":825967006,"lat":37.7912435,"lng":-122.420991,"name":"Donuts & Things","amenity":"cafe","type":"venue","outdoorSeating":false,"cuisine":null,"website":null,"address":"1549 Polk Street"},{"id":825967049,"lat":37.7898626,"lng":-122.4206981,"name":"Victor's Pizzeria & Restaurant","amenity":"restaurant","type":"venue","outdoorSeating":false,"cuisine":"italian;pizza","website":null,"address":"1411 Polk Street"},{"id":825967060,"lat":37.7903925,"lng":-122.4208034,"name":"Crustacean","amenity":"restaurant","type":"venue","outdoorSeating":false,"cuisine":null,"website":null,"address":null},{"id":825967069,"lat":37.7901339,"lng":-122.4207176,"name":"Bamboo","amenity":"restaurant","type":"venue","outdoorSeating":false,"cuisine":"chinese","website":null,"address":"1441 Polk Street"},{"id":825967134,"lat":37.7898287,"lng":-122.4204279,"name":"Pho Vietnam","amenity":"restaurant","type":"venue","outdoorSeating":false,"cuisine":"vietnamese","website":null,"address":"1406 Polk Street"},{"id":825967143,"lat":37.7899304,"lng":-122.420444,"name":"Himalayan Cuisine","amenity":"restaurant","type":"venue","outdoorSeating":false,"cuisine":"indian;nepalese","website":"https://himalayancuisinesf.com/","address":"1412 Polk Street"},{"id":825967152,"lat":37.7900332,"lng":-122.42045,"name":"Se7enbuds","amenity":"restaurant","type":"venue","outdoorSeating":false,"cuisine":null,"website":null,"address":"1426 Polk Street"},{"id":825967158,"lat":37.7897985,"lng":-122.4207014,"name":"Karahi House","amenity":"restaurant","type":"venue","outdoorSeating":true,"cuisine":"indian;pakistani","website":null,"address":"1409 Polk Street"},{"id":826961052,"lat":37.7916777,"lng":-122.4210652,"name":"Moka Coffee","amenity":"cafe","type":"venue","outdoorSeating":true,"cuisine":null,"website":null,"address":"1605 Polk Street"},{"id":826961082,"lat":37.7916997,"lng":-122.4207897,"name":"Hoi.An","amenity":"restaurant","type":"venue","outdoorSeating":false,"cuisine":"vietnamese","website":null,"address":"1608 Polk Street"},{"id":830825687,"lat":37.7992577,"lng":-122.449351,"name":"Starbucks","amenity":"cafe","type":"venue","outdoorSeating":true,"cuisine":"coffee_shop","website":"https://www.starbucks.com/store-locator/store/6663/presidio-letterman-1-letterman-drive-building-c-san-francisco-ca-9412","address":"1 Letterman Drive"},{"id":841414821,"lat":37.7904814,"lng":-122.4054652,"name":"Café de la Presse","amenity":"restaurant","type":"venue","outdoorSeating":false,"cuisine":"french","website":"https://www.cafedelapresse.com/","address":"352 Grant Avenue"},{"id":904138500,"lat":37.7815576,"lng":-122.4926164,"name":"Tsing Tao","amenity":"restaurant","type":"venue","outdoorSeating":false,"cuisine":"chinese","website":"https://www.tsingtaosf.com/","address":"3107 Clement Street"},{"id":904139678,"lat":37.7841426,"lng":-122.404448,"name":"Mel's Drive-In","amenity":"restaurant","type":"venue","outdoorSeating":false,"cuisine":"american","website":"https://melsdrive-in.com/","address":"801 Mission Street"},{"id":927572195,"lat":37.7862553,"lng":-122.4129259,"name":"Shalimar","amenity":"restaurant","type":"venue","outdoorSeating":false,"cuisine":"pakistani;indian","website":"https://www.shalimarrestaurants.us/","address":"532 Jones Street"},{"id":960932055,"lat":37.7604494,"lng":-122.508978,"name":"Java Beach Cafe","amenity":"cafe","type":"venue","outdoorSeating":true,"cuisine":"coffee_shop","website":"http://www.javabeachsf.com","address":"1396 La Playa Street"},{"id":960932937,"lat":37.7607063,"lng":-122.5054472,"name":"Golden Gate Pizza & Indian","amenity":"restaurant","type":"venue","outdoorSeating":false,"cuisine":"pizza;indian","website":null,"address":"4038 Judah Street"},{"id":960933322,"lat":37.7603301,"lng":-122.505422,"name":"DAMNFINE Coffee","amenity":"cafe","type":"venue","outdoorSeating":false,"cuisine":"coffee_shop","website":null,"address":"4033 Judah Street"},{"id":960933757,"lat":37.7603199,"lng":-122.5055547,"name":"Thai Cottage Restaurant","amenity":"restaurant","type":"venue","outdoorSeating":false,"cuisine":"thai","website":null,"address":"4041 Judah Street"},{"id":960934321,"lat":37.7602883,"lng":-122.5060654,"name":"Thanh Long","amenity":"restaurant","type":"venue","outdoorSeating":false,"cuisine":"vietnamese","website":null,"address":"4101 Judah Street"},{"id":960938593,"lat":37.7603503,"lng":-122.5050056,"name":"Outerlands","amenity":"restaurant","type":"venue","outdoorSeating":false,"cuisine":"american;organic","website":"https://outerlandssf.com/","address":"4001 Judah Street"},{"id":968355348,"lat":37.7416892,"lng":-122.4225839,"name":"Tea Rex","amenity":"cafe","type":"venue","outdoorSeating":false,"cuisine":"tea","website":"https://www.tearexsf.com/","address":"3438 Mission Street"},{"id":968355561,"lat":37.7422092,"lng":-122.4264051,"name":"Cafe XO","amenity":"cafe","type":"venue","outdoorSeating":false,"cuisine":null,"website":null,"address":"1799 Church Street"},{"id":974267637,"lat":37.7656738,"lng":-122.450096,"name":"Blue Barn Cole Valley","amenity":"restaurant","type":"venue","outdoorSeating":false,"cuisine":"salad;sandwich","website":"http://bluebarngourmet.com","address":"901 Cole Street"},{"id":974267676,"lat":37.7659452,"lng":-122.449667,"name":"Beit Rima","amenity":"restaurant","type":"venue","outdoorSeating":true,"cuisine":"middle_eastern","website":"https://beitrimasf.com/","address":"86 Carl Street"},{"id":974352510,"lat":37.7338086,"lng":-122.4339664,"name":"Bello Coffee & Tea","amenity":"cafe","type":"venue","outdoorSeating":false,"cuisine":null,"website":"https://www.bello.coffee/","address":"2885 Diamond Street"},{"id":983388325,"lat":37.7778539,"lng":-122.416278,"name":"Nepalese Indian Cusine","amenity":"restaurant","type":"venue","outdoorSeating":false,"cuisine":"indian;nepali","website":null,"address":"1298 Market Street"},{"id":983388331,"lat":37.7781961,"lng":-122.4157435,"name":"AJ's Bar","amenity":"bar","type":"venue","outdoorSeating":false,"cuisine":null,"website":null,"address":"1250 Market Street"},{"id":984659510,"lat":37.8077247,"lng":-122.4426038,"name":"Golden Gate Yacht Club","amenity":"bar","type":"venue","outdoorSeating":false,"cuisine":null,"website":null,"address":"1 Yacht Road"},{"id":984659529,"lat":37.8072388,"lng":-122.446947,"name":"St. Francis Yacht Club","amenity":"bar","type":"venue","outdoorSeating":false,"cuisine":null,"website":"https://www.stfyc.com/","address":"700 Marina Boulevard"},{"id":994218560,"lat":37.7509553,"lng":-122.4386126,"name":"Rin's Thai","amenity":"restaurant","type":"venue","outdoorSeating":false,"cuisine":"thai","website":null,"address":"4301 24th Street"},{"id":998993721,"lat":37.7683585,"lng":-122.4223963,"name":"Dancing Yak","amenity":"restaurant","type":"venue","outdoorSeating":false,"cuisine":"nepalese","website":"https://dancingyaksf.com/","address":"280 Valencia Street"},{"id":998994829,"lat":37.765011,"lng":-122.4225656,"name":"Pork Store Cafe Valencia","amenity":"restaurant","type":"venue","outdoorSeating":false,"cuisine":null,"website":"http://porkstorecafe.com","address":"3122 16th Street"},{"id":999083604,"lat":37.764981,"lng":-122.42232,"name":"Giordano Bros.","amenity":"restaurant","type":"venue","outdoorSeating":false,"cuisine":"sandwich","website":"https://www.giordanobros.com/mission/","address":"3108 16th Street"},{"id":1003279922,"lat":37.7241451,"lng":-122.456606,"name":"Go Go 7","amenity":"restaurant","type":"venue","outdoorSeating":false,"cuisine":"korean","website":null,"address":"1300 Ocean Avenue"},{"id":1014031956,"lat":37.7684783,"lng":-122.4506579,"name":"Bite Me Sandwiches","amenity":"cafe","type":"venue","outdoorSeating":false,"cuisine":"sandwich","website":null,"address":"701 Cole Street"},{"id":1029097179,"lat":37.7623688,"lng":-122.3982922,"name":"Chatz","amenity":"cafe","type":"venue","outdoorSeating":false,"cuisine":"ice_cream;coffee_shop","website":null,"address":"1471 Arkansas Street"},{"id":1083221110,"lat":37.8059987,"lng":-122.409847,"name":"Red Jack Saloon","amenity":"bar","type":"venue","outdoorSeating":false,"cuisine":null,"website":null,"address":"Bay Street"},{"id":1083221456,"lat":37.8078523,"lng":-122.4125889,"name":"IHOP","amenity":"restaurant","type":"venue","outdoorSeating":false,"cuisine":"breakfast;pancake","website":"https://restaurants.ihop.com/en-us/ca/san-francisco/breakfast-200-beach-st-1762","address":"200 Beach Street"},{"id":1097231657,"lat":37.7753633,"lng":-122.458271,"name":"The Velo Rouge Cafe","amenity":"cafe","type":"venue","outdoorSeating":true,"cuisine":null,"website":"https://www.sfvelorouge.com/","address":"798 Arguello Boulevard"},{"id":1106966263,"lat":37.7687313,"lng":-122.4292618,"name":"Beit Rima","amenity":"restaurant","type":"venue","outdoorSeating":false,"cuisine":"arab","website":"https://beitrimasf.com/locations/castro/","address":"138 Church Street"},{"id":1125115617,"lat":37.7717943,"lng":-122.433921,"name":"Palmyra Restaurant","amenity":"cafe","type":"venue","outdoorSeating":true,"cuisine":"mediterranean","website":"https://palmyrasanfrancisco.com/","address":"700 Haight Street"},{"id":1130796532,"lat":37.7529931,"lng":-122.4076451,"name":"Dynamo Donut & Coffee","amenity":"cafe","type":"venue","outdoorSeating":true,"cuisine":"coffee_shop;donut","website":"https://dynamodonut.com","address":"2760 24th Street"},{"id":1168850885,"lat":37.7516328,"lng":-122.418583,"name":"Rosamunde Sausage Grill","amenity":"restaurant","type":"venue","outdoorSeating":false,"cuisine":"german;grill","website":"https://rosamundesausagegrill.com/","address":"2832 Mission Street"},{"id":1193723957,"lat":37.7538352,"lng":-122.4206991,"name":"Beretta","amenity":"restaurant","type":"venue","outdoorSeating":false,"cuisine":"italian","website":"https://berettasf.com/","address":"1199 Valencia Street"},{"id":1195374514,"lat":37.7839525,"lng":-122.4811269,"name":"Bazaar Cafe","amenity":"cafe","type":"venue","outdoorSeating":false,"cuisine":null,"website":null,"address":null},{"id":1195375020,"lat":37.7841475,"lng":-122.4819637,"name":"Angelina's Cafe","amenity":"cafe","type":"venue","outdoorSeating":false,"cuisine":"coffee_shop;sandwich;ice_cream","website":"https://www.angelinasdelicafe.com/","address":"6000 California Street"},{"id":1206794862,"lat":37.7638277,"lng":-122.4150115,"name":"Rite Spot Cafe","amenity":"bar","type":"venue","outdoorSeating":false,"cuisine":null,"website":"https://www.ritespotcafe.net/","address":"2099 Folsom Street"},{"id":1221046206,"lat":37.7943439,"lng":-122.4051279,"name":"Sam Wo Restaurant","amenity":"restaurant","type":"venue","outdoorSeating":false,"cuisine":"chinese","website":"https://samworestaurant.com","address":"713 Clay Street"},{"id":1221102795,"lat":37.7316982,"lng":-122.4513031,"name":"Ming Garden","amenity":"restaurant","type":"venue","outdoorSeating":false,"cuisine":"asian","website":null,"address":"700 Monterey Boulevard"},{"id":1221413982,"lat":37.7336954,"lng":-122.3913168,"name":"Peking Wok","amenity":"restaurant","type":"venue","outdoorSeating":false,"cuisine":"wok","website":null,"address":null},{"id":1221414572,"lat":37.7361473,"lng":-122.3904798,"name":"Auntie April's soul food","amenity":"restaurant","type":"venue","outdoorSeating":false,"cuisine":null,"website":null,"address":null},{"id":1223019575,"lat":37.7903685,"lng":-122.4037986,"name":"Mixt","amenity":"restaurant","type":"venue","outdoorSeating":false,"cuisine":"salad;soup","website":"https://www.mixt.com/locations/240-kearny-street/","address":"240 Kearny Street"},{"id":1224107297,"lat":37.7505445,"lng":-122.418138,"name":"Reem’s California - Mission","amenity":"restaurant","type":"venue","outdoorSeating":true,"cuisine":"arab;coffee_shop","website":"https://www.reemscalifornia.com/","address":"2901 Mission Street"},{"id":1229133824,"lat":37.7233861,"lng":-122.454417,"name":"Dim the Way","amenity":"restaurant","type":"venue","outdoorSeating":false,"cuisine":null,"website":null,"address":"1109 Ocean Avenue"},{"id":1229745509,"lat":37.7606273,"lng":-122.3884006,"name":"Wooly Pig","amenity":"cafe","type":"venue","outdoorSeating":false,"cuisine":null,"website":"https://woolypigsf.com","address":"2295 3rd Street"},{"id":1229920524,"lat":37.7099557,"lng":-122.4498831,"name":"The Connection","amenity":"bar","type":"venue","outdoorSeating":false,"cuisine":null,"website":null,"address":null},{"id":1229920563,"lat":37.7165465,"lng":-122.4407606,"name":"Bravo Pizza","amenity":"restaurant","type":"venue","outdoorSeating":false,"cuisine":"pizza","website":null,"address":"5145 Mission Street"},{"id":1229920621,"lat":37.7158873,"lng":-122.4411893,"name":"Chifa Peruano Asian Restaurant","amenity":"restaurant","type":"venue","outdoorSeating":false,"cuisine":"peruvian;asian","website":null,"address":null},{"id":1229920646,"lat":37.7168741,"lng":-122.4415313,"name":"Teazzert Pho You","amenity":"restaurant","type":"venue","outdoorSeating":false,"cuisine":"vietnamese","website":"https://enjoyteazzert.com/","address":"880 Geneva Avenue"},{"id":1229920740,"lat":37.7098866,"lng":-122.4500977,"name":"Ly Luck","amenity":"restaurant","type":"venue","outdoorSeating":false,"cuisine":"asian","website":null,"address":null},{"id":1230343364,"lat":37.7319834,"lng":-122.4056375,"name":"Bruno’s Pizza & Grill","amenity":"restaurant","type":"venue","outdoorSeating":false,"cuisine":"pizza","website":null,"address":null},{"id":1230343365,"lat":37.7271499,"lng":-122.4035601,"name":"Hong Kong BBQ Restaurant","amenity":"restaurant","type":"venue","outdoorSeating":false,"cuisine":"asian;barbecue","website":null,"address":null},{"id":1230343375,"lat":37.7283267,"lng":-122.4041152,"name":"Imperial Gardens Sea Food","amenity":"restaurant","type":"venue","outdoorSeating":false,"cuisine":"seafood;asian","website":null,"address":null},{"id":1230343393,"lat":37.7279719,"lng":-122.40394,"name":"Round Table Pizza","amenity":"restaurant","type":"venue","outdoorSeating":false,"cuisine":"pizza","website":null,"address":null},{"id":1230343417,"lat":37.7317588,"lng":-122.4055348,"name":"Cinco de Mayo Taquería","amenity":"restaurant","type":"venue","outdoorSeating":false,"cuisine":"mexican","website":null,"address":null},{"id":1230343428,"lat":37.7300568,"lng":-122.4044345,"name":"Ling Ling Cuisine","amenity":"restaurant","type":"venue","outdoorSeating":false,"cuisine":"asian","website":null,"address":"2517 San Bruno Avenue"},{"id":1230343430,"lat":37.7295082,"lng":-122.4046584,"name":"2546 Cafe","amenity":"restaurant","type":"venue","outdoorSeating":false,"cuisine":"asian","website":null,"address":"2546 San Bruno Avenue"},{"id":1230343433,"lat":37.7309048,"lng":-122.4051098,"name":"Tops Café BBQ House","amenity":"restaurant","type":"venue","outdoorSeating":false,"cuisine":"asian","website":null,"address":"2460 San Bruno Avenue"},{"id":1230343461,"lat":37.7274098,"lng":-122.4036795,"name":"Giant Scoop Café","amenity":"cafe","type":"venue","outdoorSeating":false,"cuisine":null,"website":null,"address":null},{"id":1230343466,"lat":37.7316886,"lng":-122.4054939,"name":"Cali-Phô-nia","amenity":"restaurant","type":"venue","outdoorSeating":false,"cuisine":"asian","website":null,"address":null},{"id":1230343488,"lat":37.729446,"lng":-122.4041223,"name":"Pho #1","amenity":"restaurant","type":"venue","outdoorSeating":false,"cuisine":"asian","website":null,"address":null},{"id":1233283262,"lat":37.7327234,"lng":-122.3910713,"name":"Yan Li","amenity":"restaurant","type":"venue","outdoorSeating":false,"cuisine":"vietnamese","website":null,"address":null},{"id":1238299633,"lat":37.7580357,"lng":-122.3885258,"name":"Dogpatch Saloon","amenity":"bar","type":"venue","outdoorSeating":false,"cuisine":null,"website":null,"address":null},{"id":1238299641,"lat":37.7313687,"lng":-122.4514026,"name":"Railroad Expresso Café","amenity":"cafe","type":"venue","outdoorSeating":false,"cuisine":"coffee_shop","website":null,"address":"705 Monterey Boulevard"},{"id":1238299646,"lat":37.7632279,"lng":-122.3890865,"name":"Moshi Moshi","amenity":"restaurant","type":"venue","outdoorSeating":false,"cuisine":"japanese","website":null,"address":null},{"id":1241673242,"lat":37.7287077,"lng":-122.4315588,"name":"Silver Café","amenity":"cafe","type":"venue","outdoorSeating":false,"cuisine":null,"website":null,"address":null},{"id":1243920973,"lat":37.7664568,"lng":-122.4218982,"name":"Pica Pica","amenity":"restaurant","type":"venue","outdoorSeating":false,"cuisine":null,"website":"https://picapica.com/","address":"401 Valencia Street"},{"id":1246390510,"lat":37.789741,"lng":-122.4037025,"name":"Blue Bottle Coffee","amenity":"cafe","type":"venue","outdoorSeating":false,"cuisine":"coffee_shop","website":"https://bluebottlecoffee.com/cafes/sutter-street","address":"199 Sutter Street"},{"id":1256185225,"lat":37.757499,"lng":-122.392872,"name":"La Stazione","amenity":"cafe","type":"venue","outdoorSeating":false,"cuisine":null,"website":"https://www.lastazionesf.com","address":"701 Pennsylvania Avenue"},{"id":1256305829,"lat":37.7523861,"lng":-122.4144794,"name":"Bir Kitchen","amenity":"restaurant","type":"venue","outdoorSeating":false,"cuisine":"indian","website":null,"address":"3111 24th Street"},{"id":1260547146,"lat":37.7623888,"lng":-122.5068638,"name":"Hook Fish Co","amenity":"restaurant","type":"venue","outdoorSeating":true,"cuisine":"fish","website":"https://www.hookfishco.com","address":"4542 Irving Street"},{"id":1274891526,"lat":37.7984969,"lng":-122.4078707,"name":"Molinari Delicatessen","amenity":"restaurant","type":"venue","outdoorSeating":false,"cuisine":"italian","website":"https://www.themolinarideli.com","address":null},{"id":1274907133,"lat":37.7720237,"lng":-122.437047,"name":"The Little Chihuahua","amenity":"restaurant","type":"venue","outdoorSeating":false,"cuisine":"mexican","website":"https://www.thelittlechihuahua.com/locations/","address":"292 Divisadero Street"},{"id":1275243849,"lat":37.7750033,"lng":-122.4129676,"name":"AsiaSF","amenity":"restaurant","type":"venue","outdoorSeating":false,"cuisine":"asian","website":"https://asiasf.com/","address":"201 9th Street"},{"id":1280995609,"lat":37.7788843,"lng":-122.3939835,"name":"Little Skillet","amenity":"restaurant","type":"venue","outdoorSeating":false,"cuisine":null,"website":null,"address":"360 Ritch Street"},{"id":1282136006,"lat":37.7808468,"lng":-122.3910627,"name":"Slice House","amenity":"restaurant","type":"venue","outdoorSeating":false,"cuisine":"pizza","website":null,"address":"680 2nd Street"},{"id":1282343098,"lat":37.7851476,"lng":-122.4037187,"name":"Feng Cha","amenity":"cafe","type":"venue","outdoorSeating":true,"cuisine":"bubble_tea","website":null,"address":"99 Mission Street"},{"id":1282408826,"lat":37.787437,"lng":-122.398835,"name":"Lao Table","amenity":"restaurant","type":"venue","outdoorSeating":false,"cuisine":"lao","website":"https://laotablesf.com/","address":"149 2nd Street"},{"id":1282408828,"lat":37.7890698,"lng":-122.4007721,"name":"Uno dos tacos","amenity":"restaurant","type":"venue","outdoorSeating":true,"cuisine":"mexican","website":null,"address":null},{"id":1282882085,"lat":37.7865514,"lng":-122.3977478,"name":"Chatz Coffee","amenity":"cafe","type":"venue","outdoorSeating":false,"cuisine":"coffee_shop","website":null,"address":null},{"id":1293838073,"lat":37.7880541,"lng":-122.4000981,"name":"Luke’s Lobster","amenity":"restaurant","type":"venue","outdoorSeating":false,"cuisine":"seafood","website":"https://www.lukeslobster.com/location/lukes-lobster-soma/","address":"92 2nd Street"},{"id":1293838091,"lat":37.7870679,"lng":-122.4002114,"name":"Working Girls’ Cafe","amenity":"cafe","type":"venue","outdoorSeating":false,"cuisine":null,"website":"https://www.workinggirlscafe.com/","address":"122 New Montgomery Street"},{"id":1293838092,"lat":37.7884112,"lng":-122.4005405,"name":"Village Tea House","amenity":"restaurant","type":"venue","outdoorSeating":false,"cuisine":"chinese","website":"https://villageteahousesf.com","address":"62 2nd Street"},{"id":1295101185,"lat":37.7793996,"lng":-122.423343,"name":"Smuggler's Cove","amenity":"bar","type":"venue","outdoorSeating":false,"cuisine":null,"website":null,"address":"650 Gough Street"},{"id":1295101210,"lat":37.7914753,"lng":-122.403766,"name":"Vida Cantina","amenity":"restaurant","type":"venue","outdoorSeating":false,"cuisine":"mexican","website":"https://vidacantinasf.com/","address":"56 Belden Place"},{"id":1298685614,"lat":37.7765452,"lng":-122.424782,"name":"Hazie's","amenity":"restaurant","type":"venue","outdoorSeating":true,"cuisine":null,"website":"https://www.haziessf.com/","address":"501 Hayes Street"},{"id":1306052376,"lat":37.754211,"lng":-122.4812249,"name":"Henry's House of Coffee","amenity":"cafe","type":"venue","outdoorSeating":false,"cuisine":"coffee_shop","website":null,"address":"1618 Noriega Street"},{"id":1306052393,"lat":37.7610964,"lng":-122.4878965,"name":"Lion Kitchen","amenity":"restaurant","type":"venue","outdoorSeating":false,"cuisine":null,"website":null,"address":"2407 Judah Street"},{"id":1315569466,"lat":37.7577299,"lng":-122.3900248,"name":"Piccino","amenity":"restaurant","type":"venue","outdoorSeating":false,"cuisine":"italian","website":null,"address":null},{"id":1320562873,"lat":37.7877716,"lng":-122.4010378,"name":"Starbucks","amenity":"cafe","type":"venue","outdoorSeating":false,"cuisine":"coffee_shop","website":"https://www.starbucks.com/store-locator/store/9031/74-new-montgomery-74-new-montgomery-street-suite-100-san-francisco-c","address":null},{"id":1333130429,"lat":37.7873136,"lng":-122.4219579,"name":"Village Pizzeria","amenity":"restaurant","type":"venue","outdoorSeating":false,"cuisine":"pizza","website":null,"address":"1243 Van Ness Avenue"},{"id":1355379951,"lat":37.7974414,"lng":-122.4035292,"name":"Cotogna","amenity":"restaurant","type":"venue","outdoorSeating":false,"cuisine":"italian","website":"https://www.cotognasf.com/","address":"490 Pacific Avenue"},{"id":1364959567,"lat":37.7721664,"lng":-122.4308312,"name":"Nara","amenity":"restaurant","type":"venue","outdoorSeating":false,"cuisine":"japanese","website":"https://www.naraonhaight.com","address":"518 Haight Street"},{"id":1366261127,"lat":37.7720398,"lng":-122.4319794,"name":"Dumpling Union","amenity":"restaurant","type":"venue","outdoorSeating":false,"cuisine":null,"website":null,"address":"598 Haight Street"},{"id":1368719000,"lat":37.7829023,"lng":-122.4078399,"name":"Burma Love","amenity":"restaurant","type":"venue","outdoorSeating":false,"cuisine":"burmese","website":"https://www.burmalove.co/","address":"8 Mint Plaza"},{"id":1369329144,"lat":37.7766699,"lng":-122.4388536,"name":"Ju-ni Sushi Bar","amenity":"restaurant","type":"venue","outdoorSeating":false,"cuisine":"sushi","website":null,"address":"1335 Fulton Street"},{"id":1369329145,"lat":37.7757093,"lng":-122.4381297,"name":"Bar Crudo","amenity":"restaurant","type":"venue","outdoorSeating":false,"cuisine":"fish","website":"https://www.barcrudo.com/","address":"655 Divisadero Street"},{"id":1374010118,"lat":37.7611972,"lng":-122.4194734,"name":"Mission Chinese Food","amenity":"restaurant","type":"venue","outdoorSeating":false,"cuisine":"chinese","website":"https://www.missionchinesefood.com/","address":"2234 Mission Street"},{"id":1376198370,"lat":37.787382,"lng":-122.4219743,"name":"Alborz","amenity":"restaurant","type":"venue","outdoorSeating":false,"cuisine":"persian","website":null,"address":"1245 Van Ness Avenue"},{"id":1392953877,"lat":37.7827116,"lng":-122.3889689,"name":"House of Hunan","amenity":"restaurant","type":"venue","outdoorSeating":false,"cuisine":"chinese","website":null,"address":"2 Townsend Street"},{"id":1392953884,"lat":37.7825095,"lng":-122.3887551,"name":"Town's End Restaurant & Bakery","amenity":"restaurant","type":"venue","outdoorSeating":false,"cuisine":null,"website":"https://www.townsendrb.com/","address":"2 Townsend Street"},{"id":1393930496,"lat":37.7869931,"lng":-122.3997314,"name":"Cafe Madeleine","amenity":"cafe","type":"venue","outdoorSeating":true,"cuisine":null,"website":null,"address":null},{"id":1393930504,"lat":37.7883119,"lng":-122.4013656,"name":"The Sentinel","amenity":"restaurant","type":"venue","outdoorSeating":false,"cuisine":"sandwich","website":"https://www.thesentinelsf.com/","address":"37 New Montgomery Street"},{"id":1393986237,"lat":37.783205,"lng":-122.4068571,"name":"zevi café & bistro","amenity":"cafe","type":"venue","outdoorSeating":false,"cuisine":"mediterranean","website":null,"address":"67 5th Street"},{"id":1395111833,"lat":37.7848759,"lng":-122.404977,"name":"The Harlequin","amenity":"restaurant","type":"venue","outdoorSeating":false,"cuisine":"american","website":"https://www.harlequinsf.com/","address":"68 4th Street"},{"id":1397444268,"lat":37.782124,"lng":-122.485728,"name":"Hard Knox Cafe","amenity":"restaurant","type":"venue","outdoorSeating":true,"cuisine":"american;southern","website":"https://www.hardknoxcafe.com/","address":"2448 Clement Street"},{"id":1398079834,"lat":37.7980117,"lng":-122.4276333,"name":"Pane e Vino","amenity":"restaurant","type":"venue","outdoorSeating":false,"cuisine":"italian","website":null,"address":null},{"id":1406188020,"lat":37.7882028,"lng":-122.4118908,"name":"Ryoko's","amenity":"restaurant","type":"venue","outdoorSeating":false,"cuisine":"japanese;sushi","website":"https://www.ryokos.com/","address":"619 Taylor Street"},{"id":1417639584,"lat":37.7916237,"lng":-122.4104078,"name":"Top of the Mark","amenity":"bar","type":"venue","outdoorSeating":false,"cuisine":null,"website":"https://www.ihg.com/intercontinental/hotels/us/en/san-francisco/sfoha/hoteldetail/top-of-the-mark","address":null},{"id":1419473685,"lat":37.8001044,"lng":-122.4376422,"name":"Isa","amenity":"restaurant","type":"venue","outdoorSeating":false,"cuisine":"french","website":"https://www.isarestaurant.com/","address":"3324 Steiner Street"},{"id":1425813028,"lat":37.7801929,"lng":-122.3913571,"name":"Tres","amenity":"restaurant","type":"venue","outdoorSeating":false,"cuisine":"mexican","website":"https://tressf.com/","address":"130 Townsend Street"},{"id":1425813142,"lat":37.7794502,"lng":-122.390513,"name":"Underdogs Cantina","amenity":"restaurant","type":"venue","outdoorSeating":false,"cuisine":"tacos;bar_and_grill;mexican","website":"https://underdogscantina.com/","address":"128 King Street"},{"id":1428535776,"lat":37.7872353,"lng":-122.4000703,"name":"The Bird","amenity":"restaurant","type":"venue","outdoorSeating":true,"cuisine":"sandwich","website":"https://www.thebirdsf.com/","address":"115 New Montgomery Street"},{"id":1430564725,"lat":37.7597035,"lng":-122.4189945,"name":"La Playa","amenity":"restaurant","type":"venue","outdoorSeating":false,"cuisine":"seafood","website":null,"address":"2331 Mission Street"},{"id":1433963042,"lat":37.7816763,"lng":-122.3886142,"name":"South Beach Cafe","amenity":"cafe","type":"venue","outdoorSeating":true,"cuisine":null,"website":null,"address":"800 The Embarcadero"},{"id":1436065856,"lat":37.803323,"lng":-122.400871,"name":"Pier 23 Cafe","amenity":"restaurant","type":"venue","outdoorSeating":true,"cuisine":null,"website":"https://www.pier23cafe.com","address":"Pier 23 The Embarcadero"},{"id":1454042325,"lat":37.7949413,"lng":-122.3957974,"name":"Sens","amenity":"restaurant","type":"venue","outdoorSeating":false,"cuisine":null,"website":null,"address":null},{"id":1454042337,"lat":37.7934198,"lng":-122.399472,"name":"Tadich Grill","amenity":"restaurant","type":"venue","outdoorSeating":false,"cuisine":null,"website":"https://tadichgrillsf.com","address":"240 California Street"},{"id":1478460133,"lat":37.7946564,"lng":-122.4180103,"name":"Cafe Nook","amenity":"restaurant","type":"venue","outdoorSeating":false,"cuisine":null,"website":"http://www.cafenook.com/","address":"1500 Hyde Street"},{"id":1478464756,"lat":37.7985055,"lng":-122.4190726,"name":"Za Pizza","amenity":"restaurant","type":"venue","outdoorSeating":false,"cuisine":null,"website":null,"address":null},{"id":1478520956,"lat":37.7993326,"lng":-122.4189485,"name":"Abrazo","amenity":"restaurant","type":"venue","outdoorSeating":false,"cuisine":"spanish","website":"https://www.abrazosf.com/","address":"2000 Hyde Street"},{"id":1478520961,"lat":37.7990751,"lng":-122.4191779,"name":"Swensen's Ice Cream","amenity":"cafe","type":"venue","outdoorSeating":false,"cuisine":"ice_cream","website":"https://swensensofsf.com/","address":"1999 Hyde Street"},{"id":1478521746,"lat":37.7989817,"lng":-122.4188961,"name":"Baccus","amenity":"restaurant","type":"venue","outdoorSeating":false,"cuisine":null,"website":null,"address":null},{"id":1486000122,"lat":37.7900567,"lng":-122.408651,"name":"Roxanne Cafe","amenity":"restaurant","type":"venue","outdoorSeating":true,"cuisine":null,"website":"https://www.roxannecafesf.com/","address":"570 Powell Street"},{"id":1486061262,"lat":37.7893167,"lng":-122.4087923,"name":"Lori's Diner","amenity":"restaurant","type":"venue","outdoorSeating":false,"cuisine":"american","website":null,"address":"500 Sutter Street"},{"id":1486063055,"lat":37.7891202,"lng":-122.4084647,"name":"Starbucks","amenity":"cafe","type":"venue","outdoorSeating":false,"cuisine":"coffee_shop","website":"https://www.starbucks.com/store-locator/store/10551/powell-sutter-462-powell-street-san-francisco-ca-941021504-us","address":"462 Powell Street"},{"id":1493456487,"lat":37.7770688,"lng":-122.41733,"name":"Starbucks","amenity":"cafe","type":"venue","outdoorSeating":false,"cuisine":"coffee_shop","website":"https://www.starbucks.com/store-locator/store/13881/fox-plaza-1390-market-street-107-san-francisco-ca-941025403-","address":"1390 Market Street"},{"id":1493707716,"lat":37.7643338,"lng":-122.433533,"name":"Bonita","amenity":"restaurant","type":"venue","outdoorSeating":false,"cuisine":null,"website":null,"address":"3600 16th Street"},{"id":1493721688,"lat":37.7643689,"lng":-122.4333114,"name":"Lookout","amenity":"bar","type":"venue","outdoorSeating":false,"cuisine":null,"website":"http://www.lookoutsf.com","address":"3600 16th Street"},{"id":1501456789,"lat":37.7473235,"lng":-122.4594452,"name":"Yogi Sushi House","amenity":"restaurant","type":"venue","outdoorSeating":false,"cuisine":"sushi","website":"http://www.sushishoh.com","address":"406 Dewey Boulevard"},{"id":1501456791,"lat":37.7474023,"lng":-122.4593356,"name":"Chouchou","amenity":"restaurant","type":"venue","outdoorSeating":false,"cuisine":"french","website":"https://www.chouchoubistro.com/","address":"400 Dewey Boulevard"},{"id":1505455409,"lat":37.7939325,"lng":-122.4007779,"name":"Sapphire","amenity":"restaurant","type":"venue","outdoorSeating":false,"cuisine":"asian","website":"http://www.sapphiretasteofburma.com/","address":"475 Sacramento Street"},{"id":1506345270,"lat":37.7807517,"lng":-122.4057007,"name":"Tin","amenity":"restaurant","type":"venue","outdoorSeating":false,"cuisine":"vietnamese","website":"https://www.tinsf.com/","address":"937 Howard Street"},{"id":1507839214,"lat":37.7675985,"lng":-122.4296777,"name":"The Slice","amenity":"restaurant","type":"venue","outdoorSeating":false,"cuisine":"pizza","website":null,"address":"719 14th Street"},{"id":1564470250,"lat":37.7905681,"lng":-122.4598452,"name":"Ironwoods","amenity":"restaurant","type":"venue","outdoorSeating":false,"cuisine":"american","website":"https://www.presidiogolf.com/ironwoods","address":"300 Finley Road"},{"id":1564470253,"lat":37.794238,"lng":-122.4687405,"name":"General Store (Cafe)","amenity":"cafe","type":"venue","outdoorSeating":true,"cuisine":null,"website":null,"address":null},{"id":1581843965,"lat":37.778429,"lng":-122.3943226,"name":"Twenty Five Lusk","amenity":"bar","type":"venue","outdoorSeating":false,"cuisine":null,"website":"https://www.25lusk.com/","address":"25 Lusk Street"},{"id":1581862146,"lat":37.7910697,"lng":-122.4192372,"name":"Souvenir Coffee","amenity":"cafe","type":"venue","outdoorSeating":true,"cuisine":"coffee_shop","website":"https://www.souvenir-coffee.com/","address":"1415 Larkin Street"},{"id":1584925687,"lat":37.7845609,"lng":-122.5011516,"name":"Legion of Honor Café","amenity":"cafe","type":"venue","outdoorSeating":false,"cuisine":"american;european","website":null,"address":"100 34th Avenue"},{"id":1586380649,"lat":37.7642828,"lng":-122.4306267,"name":"U Dessert Story","amenity":"cafe","type":"venue","outdoorSeating":false,"cuisine":"dessert","website":null,"address":"3489 16th Street"},{"id":1607230267,"lat":37.7990483,"lng":-122.4071819,"name":"Chubby Noodle","amenity":"restaurant","type":"venue","outdoorSeating":false,"cuisine":null,"website":"https://nicostacossf.com/","address":"1310 Grant Avenue"},{"id":1607230272,"lat":37.7985549,"lng":-122.4070947,"name":"The Saloon","amenity":"bar","type":"venue","outdoorSeating":false,"cuisine":null,"website":"https://www.sfblues.net/Saloon.html","address":"1232 Grant Avenue"},{"id":1607797501,"lat":37.7965795,"lng":-122.4050553,"name":"Cafe Zoetrope","amenity":"restaurant","type":"venue","outdoorSeating":true,"cuisine":"italian","website":"www.cafecoppola.com/cafezoetrope/","address":"916 Kearny Street"},{"id":1609669940,"lat":37.7860341,"lng":-122.413173,"name":"Chutney","amenity":"restaurant","type":"venue","outdoorSeating":false,"cuisine":"indian;pakistani","website":null,"address":"511 Jones Street"},{"id":1609848215,"lat":37.7619673,"lng":-122.4192207,"name":"Murales Wine Bar & Tapas","amenity":"restaurant","type":"venue","outdoorSeating":false,"cuisine":"tapas","website":null,"address":"2199 Mission Street"},{"id":1610994013,"lat":37.7632466,"lng":-122.4152866,"name":"Stable Cafe","amenity":"cafe","type":"venue","outdoorSeating":true,"cuisine":"coffee_shop","website":"https://www.stablecafe.com/","address":"2128 Folsom Street"},{"id":1612642891,"lat":37.7845091,"lng":-122.3884407,"name":"Delancey Street Restaurant","amenity":"restaurant","type":"venue","outdoorSeating":false,"cuisine":"american","website":"http://www.delanceystreetfoundation.org/enterrestaurant.php","address":"600 The Embarcadero"},{"id":1612773733,"lat":37.7710719,"lng":-122.4132775,"name":"Butter","amenity":"bar","type":"venue","outdoorSeating":false,"cuisine":null,"website":"https://smoothasbutter.com","address":"354 11th Street"},{"id":1612808193,"lat":37.7854136,"lng":-122.4043265,"name":"The View Lounge","amenity":"bar","type":"venue","outdoorSeating":false,"cuisine":null,"website":"https://www.sfmarquis.com/theview","address":"55 4th Street"},{"id":1613829032,"lat":37.7870507,"lng":-122.398875,"name":"Blue Bottle Coffee","amenity":"cafe","type":"venue","outdoorSeating":false,"cuisine":"coffee_shop","website":"https://bluebottlecoffee.com/cafes/2nd-street","address":"168 2nd Street"},{"id":1613829037,"lat":37.7875167,"lng":-122.3989364,"name":"Pie Punks","amenity":"restaurant","type":"venue","outdoorSeating":false,"cuisine":"pizza","website":null,"address":"145 2nd Street"},{"id":1613829041,"lat":37.7881436,"lng":-122.400181,"name":"Mehfil Indian Restaurant","amenity":"restaurant","type":"venue","outdoorSeating":true,"cuisine":"indian","website":"https://mehfilsf.com","address":"88 2nd Street"},{"id":1613829042,"lat":37.7881751,"lng":-122.4002205,"name":"DaDa Bar","amenity":"bar","type":"venue","outdoorSeating":false,"cuisine":null,"website":null,"address":"86 2nd Street"},{"id":1613829044,"lat":37.7882446,"lng":-122.4003041,"name":"Caramba","amenity":"restaurant","type":"venue","outdoorSeating":true,"cuisine":"mexican","website":null,"address":null},{"id":1613831308,"lat":37.7886901,"lng":-122.4008757,"name":"Starbucks","amenity":"cafe","type":"venue","outdoorSeating":false,"cuisine":"coffee_shop","website":null,"address":"36 2nd Street"},{"id":1613924529,"lat":37.7885478,"lng":-122.398145,"name":"Madarae","amenity":"bar","type":"venue","outdoorSeating":false,"cuisine":null,"website":"https://www.madarae.com/","address":"46 Minna Street"},{"id":1614316010,"lat":37.7788503,"lng":-122.3939425,"name":"Cento","amenity":"cafe","type":"venue","outdoorSeating":false,"cuisine":"coffee_shop","website":null,"address":null},{"id":1615157213,"lat":37.7911209,"lng":-122.4176119,"name":"Ciccino","amenity":"restaurant","type":"venue","outdoorSeating":false,"cuisine":"italian","website":null,"address":"1400 California Street"},{"id":1615157230,"lat":37.7911616,"lng":-122.4171865,"name":"Wreck Room","amenity":"bar","type":"venue","outdoorSeating":false,"cuisine":null,"website":"http://www.thewreckroomsf.com/","address":"1390 California Street"},{"id":1616322282,"lat":37.7856379,"lng":-122.4302408,"name":"Dimples","amenity":"bar","type":"venue","outdoorSeating":false,"cuisine":null,"website":null,"address":"1700 Post Street"},{"id":1616322287,"lat":37.7851137,"lng":-122.4321864,"name":"Club Mari's / Mogura","amenity":"bar","type":"venue","outdoorSeating":false,"cuisine":null,"website":null,"address":"1825 Webster Street"},{"id":1616343381,"lat":37.7860357,"lng":-122.430023,"name":"Doobu","amenity":"restaurant","type":"venue","outdoorSeating":false,"cuisine":"korean","website":"https://www.doobusf.com/","address":"1723 Buchanan Street"},{"id":1616423670,"lat":37.7799172,"lng":-122.3900822,"name":"Momo's","amenity":"restaurant","type":"venue","outdoorSeating":false,"cuisine":null,"website":"https://www.sfmomos.com/","address":"760 2nd Street"},{"id":1617283389,"lat":37.7898622,"lng":-122.3992948,"name":"Yank Sing","amenity":"restaurant","type":"venue","outdoorSeating":false,"cuisine":"chinese","website":null,"address":"49 Stevenson Street"},{"id":1617283411,"lat":37.7914682,"lng":-122.3994657,"name":"Flywheel Coffee Roasters","amenity":"cafe","type":"venue","outdoorSeating":false,"cuisine":"coffee_shop","website":null,"address":null},{"id":1617288110,"lat":37.7898697,"lng":-122.4009729,"name":"Sutter Station Tavern","amenity":"bar","type":"venue","outdoorSeating":false,"cuisine":null,"website":"https://sutterstationtavern.com","address":"554 Market Street"},{"id":1617289727,"lat":37.7969488,"lng":-122.4000547,"name":"5A5 Steak House","amenity":"restaurant","type":"venue","outdoorSeating":false,"cuisine":null,"website":null,"address":null},{"id":1617289729,"lat":37.7967881,"lng":-122.3998422,"name":"Cafe Insalata","amenity":"cafe","type":"venue","outdoorSeating":false,"cuisine":null,"website":null,"address":"209 Jackson Street"},{"id":1617289730,"lat":37.7969945,"lng":-122.3996909,"name":"Kokkari Estiatorio","amenity":"restaurant","type":"venue","outdoorSeating":false,"cuisine":"greek","website":"https://kokkari.com/","address":"200 Jackson Street"},{"id":1617479688,"lat":37.7962178,"lng":-122.404589,"name":"Ravi","amenity":"restaurant","type":"venue","outdoorSeating":false,"cuisine":"indian","website":null,"address":"533 Jackson Street"},{"id":1618687933,"lat":37.7802406,"lng":-122.485657,"name":"Trad'r Sam","amenity":"bar","type":"venue","outdoorSeating":false,"cuisine":null,"website":null,"address":"6150 Geary Boulevard"},{"id":1626468365,"lat":37.7870952,"lng":-122.4128807,"name":"620 Jones","amenity":"bar","type":"venue","outdoorSeating":true,"cuisine":null,"website":"https://620-jones.com/","address":"620 Jones Street"},{"id":1626538568,"lat":37.7869582,"lng":-122.3992778,"name":"Henry's Hunan Restaurant","amenity":"restaurant","type":"venue","outdoorSeating":false,"cuisine":"chinese","website":"https://www.henryshunanrestaurant.com/","address":"110 Natoma Street"},{"id":1627742298,"lat":37.7939149,"lng":-122.3987561,"name":"Schroeder's Restaurant","amenity":"restaurant","type":"venue","outdoorSeating":false,"cuisine":"german","website":"https://www.schroederssf.com/","address":"240 Front Street"},{"id":1627837845,"lat":37.7896766,"lng":-122.3996052,"name":"Rico Mex","amenity":"restaurant","type":"venue","outdoorSeating":false,"cuisine":"mexican","website":null,"address":null},{"id":1629217172,"lat":37.7859208,"lng":-122.4046707,"name":"Amber India","amenity":"restaurant","type":"venue","outdoorSeating":true,"cuisine":"indian","website":"https://www.amber-india.com/Indian-Restaurant-San-Francisco/","address":"25 Yerba Buena Lane"},{"id":1640101685,"lat":37.7311311,"lng":-122.3922249,"name":"Gumbo Social","amenity":"restaurant","type":"venue","outdoorSeating":false,"cuisine":null,"website":"https://gumbosocial.com","address":"5176 3rd Street"},{"id":1640211004,"lat":37.7907613,"lng":-122.4028805,"name":"Escape from New York Pizza","amenity":"restaurant","type":"venue","outdoorSeating":false,"cuisine":"pizza","website":null,"address":null},{"id":1649867191,"lat":37.7602548,"lng":-122.4207752,"name":"Wildhawk","amenity":"bar","type":"venue","outdoorSeating":false,"cuisine":null,"website":"https://www.lexingtonclub.com/","address":"3464 19th Street"},{"id":1661680425,"lat":37.7871652,"lng":-122.4219217,"name":"Wok Shop Cafe","amenity":"restaurant","type":"venue","outdoorSeating":false,"cuisine":"chinese;hunan","website":null,"address":"1233 Van Ness Avenue"},{"id":1666722531,"lat":37.7612253,"lng":-122.4907775,"name":"The Pot's","amenity":"restaurant","type":"venue","outdoorSeating":false,"cuisine":"chinese","website":null,"address":"2652 Judah Street"},{"id":1674110549,"lat":37.7855563,"lng":-122.4083525,"name":"ABSteak","amenity":"restaurant","type":"venue","outdoorSeating":false,"cuisine":"steak_house","website":"https://absteaksf.com/","address":"124 Ellis Street"},{"id":1676994251,"lat":37.7832783,"lng":-122.4060429,"name":"Executive Order","amenity":"bar","type":"venue","outdoorSeating":false,"cuisine":null,"website":null,"address":null},{"id":1700641974,"lat":37.7770339,"lng":-122.4084399,"name":"Sightglass Coffee","amenity":"cafe","type":"venue","outdoorSeating":false,"cuisine":null,"website":null,"address":"270 7th Street"},{"id":1701772830,"lat":37.7902372,"lng":-122.4073165,"name":"Bouche","amenity":"restaurant","type":"venue","outdoorSeating":false,"cuisine":"french","website":"https://www.bouchesf.com/","address":"603 Bush Street"},{"id":1712264173,"lat":37.7438727,"lng":-122.4219927,"name":"The Front Porch","amenity":"restaurant","type":"venue","outdoorSeating":false,"cuisine":null,"website":"https://www.thefrontporchsf.com/","address":"65 29th Street"},{"id":1713256844,"lat":37.751176,"lng":-122.4342608,"name":"Subs, Inc.","amenity":"restaurant","type":"venue","outdoorSeating":false,"cuisine":"sandwich;ice_cream","website":"https://www.subsincsf.com/","address":"1300 Castro Street"},{"id":1713256857,"lat":37.7514952,"lng":-122.4361932,"name":"Dash","amenity":"restaurant","type":"venue","outdoorSeating":false,"cuisine":"japanese","website":null,"address":"737 Diamond Street"},{"id":1713256879,"lat":37.7512869,"lng":-122.4361685,"name":"Diamond Cafe","amenity":"cafe","type":"venue","outdoorSeating":false,"cuisine":null,"website":null,"address":null},{"id":1713256896,"lat":37.7514059,"lng":-122.4350419,"name":"Barney's Gourmet Hamburgers","amenity":"restaurant","type":"venue","outdoorSeating":false,"cuisine":"burger","website":"https://www.barneyshamburgers.com/barneys-san-francisco","address":"4138 24th Street"},{"id":1713256899,"lat":37.7513012,"lng":-122.435596,"name":"Noe Indian Kitchen","amenity":"restaurant","type":"venue","outdoorSeating":false,"cuisine":"indian","website":null,"address":"4166 24th Street"},{"id":1713269531,"lat":37.7512527,"lng":-122.4332683,"name":"Bonita","amenity":"restaurant","type":"venue","outdoorSeating":false,"cuisine":null,"website":"https://chezmariusfrenchbistro.com/","address":"4063 24th Street"},{"id":1713269532,"lat":37.7513214,"lng":-122.4316832,"name":"Starbucks","amenity":"cafe","type":"venue","outdoorSeating":false,"cuisine":"coffee_shop","website":"https://www.starbucks.com/store-locator/store/12166/24th-noe-3995-24th-street-san-francisco-ca-941143703-us","address":"3995 24th Street"},{"id":1713269574,"lat":37.7517066,"lng":-122.428788,"name":"Saru","amenity":"restaurant","type":"venue","outdoorSeating":false,"cuisine":"japanese","website":null,"address":"3856 24th Street"},{"id":1713269576,"lat":37.7513624,"lng":-122.4344716,"name":"Peasant Pies","amenity":"cafe","type":"venue","outdoorSeating":false,"cuisine":null,"website":null,"address":"4108 24th Street"},{"id":1713269579,"lat":37.751086,"lng":-122.4339416,"name":"Bistro SF Grill","amenity":"restaurant","type":"venue","outdoorSeating":false,"cuisine":"burger","website":null,"address":null},{"id":1713269583,"lat":37.7515084,"lng":-122.4320831,"name":"Novy","amenity":"restaurant","type":"venue","outdoorSeating":false,"cuisine":"greek;california","website":"https://www.novysf.com/","address":"4000 24th Street"},{"id":1713269593,"lat":37.7513088,"lng":-122.4323337,"name":"Tung Sing Restaurant","amenity":"restaurant","type":"venue","outdoorSeating":false,"cuisine":"chinese","website":"https://tung-sing-restaurant.hub.biz/","address":"4015 24th Street"},{"id":1713269606,"lat":37.7516023,"lng":-122.4311708,"name":"Bernie's","amenity":"cafe","type":"venue","outdoorSeating":false,"cuisine":"coffee_shop","website":null,"address":"3966 24th Street"},{"id":1713269628,"lat":37.7513195,"lng":-122.432164,"name":"Pancake Boy","amenity":"restaurant","type":"venue","outdoorSeating":false,"cuisine":"american;breakfast","website":"https://pancakeboysf.com/","address":"4007 24th Street"},{"id":1713279742,"lat":37.7507355,"lng":-122.4341834,"name":"Hamano Sushi","amenity":"restaurant","type":"venue","outdoorSeating":false,"cuisine":"japanese;sushi;omakase","website":"https://hamanosushi.com/","address":"1332 Castro Street"},{"id":1718708780,"lat":37.7803796,"lng":-122.4744177,"name":"Kabuto Restaurant","amenity":"restaurant","type":"venue","outdoorSeating":true,"cuisine":"japanese","website":null,"address":"5121 Geary Boulevard"},{"id":1754115352,"lat":37.7850977,"lng":-122.4177837,"name":"Piccolo Italia","amenity":"restaurant","type":"venue","outdoorSeating":false,"cuisine":"pizza","website":null,"address":null},{"id":1762825978,"lat":37.780834,"lng":-122.4644592,"name":"Alushe coffee bar","amenity":"cafe","type":"venue","outdoorSeating":false,"cuisine":null,"website":null,"address":"4201 Geary Boulevard"},{"id":1763183949,"lat":37.7813003,"lng":-122.4625151,"name":"Genki Ramen","amenity":"restaurant","type":"venue","outdoorSeating":false,"cuisine":"japanese;ramen","website":"http://genkiramen.com","address":"4014 Geary Boulevard"},{"id":1763890157,"lat":37.7522296,"lng":-122.4202774,"name":"Ezzo Rotisserie","amenity":"restaurant","type":"venue","outdoorSeating":false,"cuisine":"middle_eastern;chicken","website":null,"address":"3388 24th Street"},{"id":1765718669,"lat":37.7771535,"lng":-122.4630916,"name":"Muguboka","amenity":"restaurant","type":"venue","outdoorSeating":false,"cuisine":"korean","website":null,"address":"401 Balboa Street"},{"id":1765718671,"lat":37.7771286,"lng":-122.4635232,"name":"Cantina Los Mayos","amenity":"restaurant","type":"venue","outdoorSeating":false,"cuisine":"mexican;brunch","website":"https://cantinalosmayas.com","address":"431 Balboa Street"},{"id":1769223514,"lat":37.7831528,"lng":-122.4625522,"name":"Blue Danube Coffee House","amenity":"cafe","type":"venue","outdoorSeating":true,"cuisine":null,"website":null,"address":"306 Clement Street"},{"id":1769223515,"lat":37.7829134,"lng":-122.4625652,"name":"Burma Superstar","amenity":"restaurant","type":"venue","outdoorSeating":false,"cuisine":"asian","website":"https://www.burmasuperstar.com/","address":"309 Clement Street"},{"id":1769223517,"lat":37.780656,"lng":-122.4765764,"name":"Hong Kong Lounge","amenity":"restaurant","type":"venue","outdoorSeating":false,"cuisine":"chinese","website":null,"address":"5322 Geary Boulevard"},{"id":1769223518,"lat":37.7831596,"lng":-122.4626671,"name":"Mai's Vietnamese Restaurant","amenity":"restaurant","type":"venue","outdoorSeating":false,"cuisine":"vietnamese","website":null,"address":"316 Clement Street"},{"id":1769223520,"lat":37.7802857,"lng":-122.4763814,"name":"Royal Ground Coffee","amenity":"cafe","type":"venue","outdoorSeating":false,"cuisine":null,"website":null,"address":"5301 Geary Boulevard"},{"id":1771741233,"lat":37.7760496,"lng":-122.402276,"name":"Pho De Nguyen","amenity":"restaurant","type":"venue","outdoorSeating":false,"cuisine":"vietnamese","website":null,"address":"501 6th Street"},{"id":1773719073,"lat":37.780692,"lng":-122.4165534,"name":"Chao Pescao","amenity":"restaurant","type":"venue","outdoorSeating":false,"cuisine":null,"website":"https://www.chaopescaosf.com/","address":"272 McAllister Street"},{"id":1777418695,"lat":37.8038977,"lng":-122.4151415,"name":"International Sports Club","amenity":"bar","type":"venue","outdoorSeating":false,"cuisine":null,"website":null,"address":"1000 Columbus Avenue"},{"id":1784908622,"lat":37.7767623,"lng":-122.4379485,"name":"Fly Bar & Restaurant","amenity":"bar","type":"venue","outdoorSeating":false,"cuisine":null,"website":"https://flybarandrestaurant.com/sf/","address":"762 Divisadero Street"},{"id":1799521636,"lat":37.785429,"lng":-122.404084,"name":"Tropisueño","amenity":"restaurant","type":"venue","outdoorSeating":false,"cuisine":"mexican","website":"https://www.tropisueno.com/","address":"75 Yerba Buena Lane"},{"id":1806978712,"lat":37.7712823,"lng":-122.4130526,"name":"Bar Agricole","amenity":"bar","type":"venue","outdoorSeating":false,"cuisine":null,"website":"https://baragricole.com/","address":"355 11th Street"},{"id":1809593836,"lat":37.7335649,"lng":-122.4897011,"name":"Peet's Coffee","amenity":"cafe","type":"venue","outdoorSeating":false,"cuisine":"coffee_shop","website":null,"address":"1509 Sloat Boulevard"},{"id":1809594281,"lat":37.7335712,"lng":-122.4895496,"name":"King of Thai Noodles","amenity":"restaurant","type":"venue","outdoorSeating":false,"cuisine":"thai","website":null,"address":"1507 Sloat Boulevard"},{"id":1816911117,"lat":37.7804268,"lng":-122.4732789,"name":"Lou's Cafe","amenity":"restaurant","type":"venue","outdoorSeating":false,"cuisine":"sandwich","website":"www.louscafesf.com","address":"5017 Geary Boulevard"},{"id":1817015240,"lat":37.7804605,"lng":-122.480893,"name":"Sonamu","amenity":"restaurant","type":"venue","outdoorSeating":false,"cuisine":"korean","website":"https://www.sonamusf.com/","address":"5716 Geary Boulevard"},{"id":1819811580,"lat":37.7830042,"lng":-122.4606791,"name":"B Star","amenity":"restaurant","type":"venue","outdoorSeating":true,"cuisine":"asian;burmese;thai;chinese;filipino;korean;indian","website":"https://www.bstarbar.com/","address":"127 Clement Street"},{"id":1819811583,"lat":37.7832711,"lng":-122.4600246,"name":"Eats","amenity":"restaurant","type":"venue","outdoorSeating":false,"cuisine":"american","website":null,"address":"50 Clement Street"},{"id":1819811593,"lat":37.7830071,"lng":-122.4607694,"name":"Le Soleil","amenity":"restaurant","type":"venue","outdoorSeating":true,"cuisine":"vietnamese","website":null,"address":"133 Clement Street"},{"id":1819811595,"lat":37.7829642,"lng":-122.4617111,"name":"lily","amenity":"restaurant","type":"venue","outdoorSeating":false,"cuisine":"vietnamese","website":"https://www.lilyonclement.com/","address":"225 Clement Street"},{"id":1819811597,"lat":37.7831179,"lng":-122.4638239,"name":"Scarlet Lounge","amenity":"bar","type":"venue","outdoorSeating":false,"cuisine":null,"website":null,"address":"408 Clement Street"},{"id":1819811607,"lat":37.782891,"lng":-122.4632006,"name":"Kitchen Istanbul","amenity":"restaurant","type":"venue","outdoorSeating":false,"cuisine":"turkish;mediterranean","website":"https://www.kitchenistanbulsf.com/","address":"349 Clement Street"},{"id":1822506137,"lat":37.7805434,"lng":-122.479133,"name":"Gaspare's","amenity":"restaurant","type":"venue","outdoorSeating":false,"cuisine":"italian","website":"https://www.gasparespizza.com/","address":"5546 Geary Boulevard"},{"id":1822506138,"lat":37.780587,"lng":-122.4780789,"name":"Gordo Taqueria","amenity":"restaurant","type":"venue","outdoorSeating":false,"cuisine":"mexican","website":"https://gordotaqueria.co/","address":"5450 Geary Boulevard"},{"id":1823804078,"lat":37.7900511,"lng":-122.4011911,"name":"Caffè Bianco","amenity":"cafe","type":"venue","outdoorSeating":false,"cuisine":"sandwich;pastry;italian","website":null,"address":"39 Sutter Street"},{"id":1823804082,"lat":37.7900373,"lng":-122.4012968,"name":"Per Diem","amenity":"restaurant","type":"venue","outdoorSeating":false,"cuisine":"italian","website":"https://www.perdiemsf.com/","address":"43 Sutter Street"},{"id":1823916684,"lat":37.7981337,"lng":-122.406826,"name":"Taqueria Zorro","amenity":"restaurant","type":"venue","outdoorSeating":false,"cuisine":"mexican","website":"https://www.taqueriazorro.com/","address":null},{"id":1827268752,"lat":37.7770904,"lng":-122.4641893,"name":"Yuubi Japanese Restaurant","amenity":"restaurant","type":"venue","outdoorSeating":false,"cuisine":"japanese","website":"https://www.yuubisf.com/","address":"501 Balboa Street"},{"id":1829910392,"lat":37.7738129,"lng":-122.4119265,"name":"Northern China BBQ","amenity":"restaurant","type":"venue","outdoorSeating":false,"cuisine":"barbecue;chinese","website":null,"address":"294 9th Street"},{"id":1839527429,"lat":37.7553007,"lng":-122.419366,"name":"Make Out Room","amenity":"bar","type":"venue","outdoorSeating":false,"cuisine":null,"website":null,"address":"3225 22nd Street"},{"id":1840697756,"lat":37.7858521,"lng":-122.4299995,"name":"Kippu","amenity":"restaurant","type":"venue","outdoorSeating":false,"cuisine":"sushi","website":"https://www.kippusushi.com/","address":null},{"id":1844653896,"lat":37.785513,"lng":-122.413076,"name":"Zombie Village","amenity":"bar","type":"venue","outdoorSeating":false,"cuisine":"tiki_bar","website":"https://www.thezombievillage.com/","address":"441 Jones Street"},{"id":1844915443,"lat":37.7859991,"lng":-122.4044428,"name":"Press Club","amenity":"bar","type":"venue","outdoorSeating":false,"cuisine":null,"website":"https://pressclubsf.com/","address":"20 Yerba Buena Lane"},{"id":1846461309,"lat":37.7967569,"lng":-122.4221183,"name":"Starbucks","amenity":"cafe","type":"venue","outdoorSeating":false,"cuisine":"coffee_shop","website":"https://www.starbucks.com/store-locator/store/9037/polk-street-2165-polk-street-san-francisco-ca-941092506-us","address":"2165 Polk Street"},{"id":1847653049,"lat":37.7815248,"lng":-122.398958,"name":"Donburi Ya","amenity":"restaurant","type":"venue","outdoorSeating":false,"cuisine":"japanese","website":"https://donburiyasf.com","address":"764 Harrison Street"},{"id":1847720030,"lat":37.7770034,"lng":-122.4380361,"name":"Eddie's Cafe","amenity":"cafe","type":"venue","outdoorSeating":false,"cuisine":null,"website":null,"address":"800 Divisadero Street"},{"id":1854870858,"lat":37.7835366,"lng":-122.3988479,"name":"Chaat Corner","amenity":"restaurant","type":"venue","outdoorSeating":false,"cuisine":"indian","website":"https://chaatcornersf.com/","address":"320 3rd Street"},{"id":1854878716,"lat":37.7835525,"lng":-122.39902,"name":"Bocado","amenity":"restaurant","type":"venue","outdoorSeating":false,"cuisine":"peruvian","website":"https://mybocado.com/","address":"701 Folsom Street"},{"id":1854985759,"lat":37.7842286,"lng":-122.4090955,"name":"Little Delhi","amenity":"restaurant","type":"venue","outdoorSeating":false,"cuisine":"indian","website":null,"address":"83 Eddy Street"},{"id":1856001179,"lat":37.785818,"lng":-122.399723,"name":"Fang","amenity":"restaurant","type":"venue","outdoorSeating":false,"cuisine":"chinese","website":"https://www.fangrestaurant.com/","address":"660 Howard Street"},